name,vicinity,types,latitude,longitude
천명꼬치구이,South Korea,"['restaurant', 'food', 'point_of_interest', 'establishment']",37.5395869,127.0641683
아바이아매장국집,"2호, 12-3번지 Jayang-dong, Gwangjin-gu","['restaurant', 'food', 'point_of_interest', 'establishment']",37.5395869,127.0641683
어뤄쓰따촬,"1호, 12-3번지 Jayang-dong, Gwangjin-gu","['restaurant', 'food', 'point_of_interest', 'establishment']",37.5395869,127.0641683
북경챈청소고기전병,"12-5 Jayang-dong, 번지 1층, Gwangjin-gu","['restaurant', 'food', 'point_of_interest', 'establishment']",37.5396273,127.0640388
진주식당,자양동 12-5번지 1층 광진구 서울특별시 KR,"['restaurant', 'food', 'point_of_interest', 'establishment']",37.5396273,127.0640388
봉자마라탕,"22 Dongil-ro 18-gil, Jayang-dong, Gwangjin-gu","['restaurant', 'food', 'point_of_interest', 'establishment']",37.5396273,127.0640388
순평쌀국수,"12-24 Jayang-dong, 번지 1층, Gwangjin-gu","['restaurant', 'food', 'point_of_interest', 'establishment']",37.5395323,127.0643297
연길양꼬치구이,"12-24번지 Jayang-dong, Gwangjin-gu","['restaurant', 'food', 'point_of_interest', 'establishment']",37.5395323,127.0643297
삼삼식당,자양동 12-24번지 1층 광진구 서울특별시 KR,"['restaurant', 'food', 'point_of_interest', 'establishment']",37.5395323,127.0643297
김사부계서도삭면,"1층, 12-24번지 Jayang-dong, Gwangjin-gu","['restaurant', 'food', 'point_of_interest', 'establishment']",37.5395323,127.0643297
광장인력,자양동 12-24번지 2층 광진구 서울특별시 KR,"['restaurant', 'food', 'point_of_interest', 'establishment']",37.5395323,127.0643297
오두막양꼬치,"16-37 Jayang-dong, 번지 1층, Gwangjin-gu","['restaurant', 'food', 'point_of_interest', 'establishment']",37.5397367,127.0643169
몽다래향라관,자양동 16-37번지 2층 광진구 서울특별시 KR,"['restaurant', 'food', 'point_of_interest', 'establishment']",37.5397367,127.0643169
작은양꼬치,자양동 16-37번지 광진구 서울특별시 KR,"['restaurant', 'food', 'point_of_interest', 'establishment']",37.5397367,127.0643169
홍야동 마오차이,"23 Dongil-ro 18-gil, Gwangjin-gu","['restaurant', 'food', 'point_of_interest', 'establishment']",37.5397367,127.0643169
Mulmandu,자양동 16-37번지 1층 광진구 서울특별시 KR,"['restaurant', 'food', 'point_of_interest', 'establishment']",37.5397367,127.0643169
원보양꼬치,"23 Dongil-ro 18-gil, 자양제4동, Gwangjin-gu","['restaurant', 'food', 'point_of_interest', 'establishment']",37.5397367,127.0643169
무진장왕숯불갈비,"Jayang-dong, Gwangjin-gu","['restaurant', 'food', 'point_of_interest', 'establishment']",37.5397341,127.0643508
연우식당,"16-37 Jayang-dong, Gwangjin-gu","['restaurant', 'food', 'point_of_interest', 'establishment']",37.539659,127.064466
오케이(OK)치킨호츠,자양동 16-24번지 1층 광진구 서울특별시 KR,"['meal_takeaway', 'restaurant', 'food', 'point_of_interest', 'establishment']",37.5398455,127.0643993
그때그집,"16-24번지 Jayang-dong, Gwangjin-gu","['restaurant', 'food', 'point_of_interest', 'establishment']",37.5398455,127.0643993
마라유혹,자양동 16-24번지 광진구 서울특별시 KR,"['restaurant', 'food', 'point_of_interest', 'establishment']",37.5398455,127.0643993
동북축산연길보신탕,자양동 12-7번지 1층 광진구 서울특별시 KR,"['restaurant', 'food', 'point_of_interest', 'establishment']",37.5397031,127.0638251
란주천면관,자양동 12-28번지 광진구 서울특별시 KR,"['restaurant', 'food', 'point_of_interest', 'establishment']",37.5394501,127.0645298
원일반점,South Korea,"['restaurant', 'food', 'point_of_interest', 'establishment']",37.539639,127.0646101
풍천장어,"Jayang-dong, Gwangjin-gu","['restaurant', 'food', 'point_of_interest', 'establishment']",37.5398729,127.0639064
소성공자 샤브샤브,"16-26 Jayang-dong, Gwangjin-gu","['restaurant', 'food', 'point_of_interest', 'establishment']",37.5398838,127.0638851
꼬치튀김이야기,"28 Dongil-ro 12-gil, Gwangjin-gu","['restaurant', 'food', 'point_of_interest', 'establishment']",37.5398031,127.0637472
Simgane,"12-11 Jayang-dong, 번지 102호 리버빌, Gwangjin-gu","['restaurant', 'food', 'point_of_interest', 'establishment']",37.5397255,127.0636936
공주닭발성수점,South Korea,"['restaurant', 'food', 'point_of_interest', 'establishment']",37.5397255,127.0636936
Babtonglyeong,KR 서울특별시 광진구 자양동 12-11번지 1층 101호 리버빌,"['restaurant', 'food', 'point_of_interest', 'establishment']",37.5397255,127.0636936
소관작천하,"13-8 Jayang-dong, Gwangjin-gu","['restaurant', 'food', 'point_of_interest', 'establishment']",37.5395986,127.0647373
동해안생태동태탕,자양동 13-8번지 1층 광진구 서울특별시 KR,"['restaurant', 'food', 'point_of_interest', 'establishment']",37.5395986,127.0647373
민속순대국,"Jayang-dong, Gwangjin-gu","['restaurant', 'food', 'point_of_interest', 'establishment']",37.5395952,127.0647674
취헌꼬치구이전문점,South Korea,"['restaurant', 'food', 'point_of_interest', 'establishment']",37.5395573,127.0648646
진국설렁탕,"Jayang-dong, Gwangjin-gu","['restaurant', 'food', 'point_of_interest', 'establishment']",37.53953970000001,127.0648785
란주우육면,"37 Dongil-ro 18-gil, Gwangjin-gu","['restaurant', 'food', 'point_of_interest', 'establishment']",37.5395622,127.0650084
하얼빈양꼬치샤브샤브,자양동 13-39번지 광진구 서울특별시 KR,"['restaurant', 'food', 'point_of_interest', 'establishment']",37.5395204,127.064985
일춘식당,자양동 13-39번지 일춘식당 광진구 서울특별시 KR,"['restaurant', 'food', 'point_of_interest', 'establishment']",37.5395204,127.064985
마랄압발,"Jayang-dong, Gwangjin-gu","['restaurant', 'food', 'point_of_interest', 'establishment']",37.5395119,127.0650174
뉴 외할머니 밥상집 건대점,"857 Jayang-dong, Gwangjin-gu","['restaurant', 'food', 'point_of_interest', 'establishment']",37.53939099999999,127.0648097
Chwimala,"12-2 자양제4동, Gwangjin-gu","['restaurant', 'food', 'point_of_interest', 'establishment']",37.5393863,127.0647869
노유똥돼지,"Jayang-dong, Gwangjin-gu","['restaurant', 'food', 'point_of_interest', 'establishment']",37.539373,127.0647952
뒤집고뒤집다,"13-40 Jayang-dong, 번지 1층, Gwangjin-gu","['restaurant', 'food', 'point_of_interest', 'establishment']",37.5394772,127.0651055
해룡 마라룽샤,"36, 동일로18길, 광진구","['restaurant', 'food', 'point_of_interest', 'establishment']",37.539335,127.0647073
건대양꼬치 연옥양꼬치,"KR 서울특별시, 42 Dongil-ro 18-gil, Gwangjin-gu, 서울","['restaurant', 'food', 'point_of_interest', 'establishment']",37.539367,127.0650489
Bogmanlu,"43 Dongil-ro 18-gil, Gwangjin-gu","['restaurant', 'food', 'point_of_interest', 'establishment']",37.53944439999999,127.0652778
룡천고향닭곰집,자양동 13-62번지 1층 광진구 서울특별시 KR,"['restaurant', 'food', 'point_of_interest', 'establishment']",37.5395212,127.0653199
용정성일초두부,자양동 13-62번지 1층 광진구 서울특별시 KR,"['restaurant', 'food', 'point_of_interest', 'establishment']",37.5395212,127.0653199
福 楼,"１３−４１ 자양제4동, Gwangjin-gu","['restaurant', 'food', 'point_of_interest', 'establishment']",37.5394022,127.0652781
매운양갈비,"47 Dongil-ro 18-gil, Gwangjin-gu","['restaurant', 'food', 'point_of_interest', 'establishment']",37.5393766,127.0654885
Hounlae,자양동 10-32번지 1층 광진구 서울특별시 KR,"['restaurant', 'food', 'point_of_interest', 'establishment']",37.53933859999999,127.0654682
허씨전통중경 석기시대 마라쌍궈,"10-32 자양제4동, Gwangjin-gu","['restaurant', 'food', 'point_of_interest', 'establishment']",37.5392384,127.065496
해월양꼬치 샤브샤브 본점,"10-29 Jayang-dong, Gwangjin-gu","['restaurant', 'food', 'point_of_interest', 'establishment']",37.5393006,127.0656746
Hongkong,자양동 12-1번지 지하 광진구 서울특별시 KR,"['restaurant', 'food', 'point_of_interest', 'establishment']",37.5392496,127.0651502
악바리야식,"Jayang-dong, Gwangjin-gu","['restaurant', 'food', 'point_of_interest', 'establishment']",37.53917859999999,127.0654062
경성양꼬치,자양동 10-20번지 1층 광진구 서울특별시 KR,"['restaurant', 'food', 'point_of_interest', 'establishment']",37.5392672,127.0659058
숯불바베큐불닭,"Jayang-dong, Gwangjin-gu","['restaurant', 'food', 'point_of_interest', 'establishment']",37.5392342,127.0659062
허흑오리,"1층, 10-19번지 Jayang-dong, Gwangjin-gu","['restaurant', 'food', 'point_of_interest', 'establishment']",37.5391892,127.0660652
이치방스시,"2층 201-5호, 9-4번지 Jayang-dong, Gwangjin-gu","['restaurant', 'point_of_interest', 'food', 'establishment']",37.5397483,127.0669205
뜨겁개핫도그,자양동 9-4번지 108동 -5호 광진구 서울특별시 KR,"['restaurant', 'point_of_interest', 'food', 'establishment']",37.5397483,127.0669205
일순소한마리,"2층 202호, 9-4번지 Jayang-dong, Gwangjin-gu","['restaurant', 'point_of_interest', 'food', 'establishment']",37.5397483,127.0669205
마살라케밥,자양동 9-4번지 광진구 서울특별시 KR,"['restaurant', 'point_of_interest', 'food', 'establishment']",37.5397483,127.0669205
라라미센,자양동 9-4번지 105호 광진구 서울특별시 KR,"['restaurant', 'point_of_interest', 'food', 'establishment']",37.5397483,127.0669205
매화딤섬,South Korea,"['restaurant', 'point_of_interest', 'food', 'establishment']",37.5397483,127.0669205
Shy Bana,"9-4 Jayang-dong, Gwangjin-gu","['restaurant', 'point_of_interest', 'food', 'establishment']",37.5397615,127.0669682
배꼽시계,"Jayang-dong, Gwangjin-gu","['restaurant', 'point_of_interest', 'food', 'establishment']",37.5396435,127.0674547
Yamsaem,"Jayang-dong, Gwangjin-gu","['restaurant', 'point_of_interest', 'food', 'establishment']",37.539623,127.0674893
홍천숯불화로구이,"9-35 Jayang-dong, Gwangjin-gu","['restaurant', 'point_of_interest', 'food', 'establishment']",37.53976189999999,127.0672949
Chun-Li Malatang,"23 Achasan-ro 30-gil, Gwangjin-gu","['restaurant', 'point_of_interest', 'food', 'establishment']",37.5396475,127.0674225
춘천닭갈비,"9-29 자양제4동, Gwangjin-gu","['restaurant', 'point_of_interest', 'food', 'establishment']",37.539873,127.0672949
불볶이와튀김범벅 건대점,"9-29 Jayang-dong, Gwangjin-gu","['restaurant', 'point_of_interest', 'food', 'establishment']",37.539873,127.0672949
안나리숯불신선로,"아차산로30길 23, 2층, Gwangjin-gu","['restaurant', 'point_of_interest', 'food', 'establishment']",37.5396435,127.0674547
하이더푸쟈오쯔전문점,"6-8 Jayang-dong, 번지 1층, Gwangjin-gu","['restaurant', 'point_of_interest', 'food', 'establishment']",37.5396435,127.0674547
Chwalchwalhyang,자양동 6-8번지 1층 자양동 광진구 서울특별시 KR,"['restaurant', 'point_of_interest', 'food', 'establishment']",37.5396435,127.0674547
포마토 김밥 건대점,"20 Achasan-ro 30-gil, 자양제4동, Gwangjin-gu","['restaurant', 'point_of_interest', 'food', 'establishment']",37.5398659,127.0673218
토마토김밥,자양동 9-29번지 1층 광진구 서울특별시 KR,"['meal_takeaway', 'restaurant', 'point_of_interest', 'food', 'establishment']",37.5398659,127.0673218
김밥사랑,"Jayang-dong, Gwangjin-gu","['restaurant', 'point_of_interest', 'food', 'establishment']",37.53984519999999,127.0673505
Labab Konkuk,"20 Achasan-ro 30-gil, Gwangjin-gu","['restaurant', 'point_of_interest', 'food', 'establishment']",37.5399205,127.067297
Chuanxiang malatang,"20 Achasan-ro 30-gil, Gwangjin-gu","['restaurant', 'food', 'point_of_interest', 'establishment']",37.539894,127.0673839
Wapeulmong,자양동 6-58번지 1층 광진구 서울특별시 KR,"['restaurant', 'food', 'point_of_interest', 'establishment']",37.539321,127.0673535
왕세숫대야냉면,"Jayang-dong, Gwangjin-gu","['restaurant', 'point_of_interest', 'food', 'establishment']",37.539873,127.0676004
허씨 정통중경마라샹궈 건대3호점,"17 Achasan-ro 30-gil, Gwangjin-gu","['restaurant', 'point_of_interest', 'food', 'establishment']",37.5398887,127.067583
봉순이통닭,자양동 6-41번지 광진구 서울특별시 KR,"['restaurant', 'point_of_interest', 'food', 'establishment']",37.5398887,127.067583
홍루이젠,"15 Achasan-ro 30-gil, 자양제4동, Gwangjin-gu","['restaurant', 'point_of_interest', 'food', 'establishment']",37.5400083,127.0676159
Kungpu,자양동 6-76번지 1층 광진구 서울특별시 KR,"['restaurant', 'food', 'point_of_interest', 'establishment']",37.5399433,127.0682205
춘향미엔 건대점,"1층, 춘향미엔, 92 Dongil-ro 20-gil, Gwangjin-gu, 서울","['restaurant', 'food', 'point_of_interest', 'establishment']",37.5398796,127.068456
큰집닭강정 건대점,"6-30 Jayang-dong, 번지 1층, Gwangjin-gu","['restaurant', 'food', 'point_of_interest', 'establishment']",37.5399838,127.0681057
Dalg-Gwang,"1층, 6-30번지 Jayang-dong, Gwangjin-gu","['restaurant', 'food', 'point_of_interest', 'establishment']",37.5399838,127.0681057
Seusijin,자양동 6-31번지 1층 광진구 서울특별시 KR,"['restaurant', 'food', 'point_of_interest', 'establishment']",37.540027,127.0679852
플라잉볼익스프레스 건대점,"82 Dongil-ro 20-gil, 자양제4동, Gwangjin-gu","['restaurant', 'food', 'point_of_interest', 'establishment']",37.540027,127.0679852
충만치킨 건대점,"98 Dongil-ro 20-gil, 자양제4동, Gwangjin-gu","['restaurant', 'point_of_interest', 'food', 'establishment']",37.5397672,127.0687443
호아빈 건대점,"5-13 Jayang-dong, Gwangjin-gu","['restaurant', 'point_of_interest', 'food', 'establishment']",37.53951199999999,127.0691558
Sadon,자양동 5-10번지 1층 지하 광진구 서울특별시 KR,"['restaurant', 'point_of_interest', 'food', 'establishment']",37.5397261,127.0688998
Yuksudang Geondae,South Korea,"['restaurant', 'point_of_interest', 'food', 'establishment']",37.53951259999999,127.0691379
다맛포차,"자양동 5-13번지 다맛포차, Gwangjin-gu","['restaurant', 'point_of_interest', 'food', 'establishment']",37.53951259999999,127.0691379
88 Loop Burger,"5-13 Jayang-dong, Gwangjin-gu","['restaurant', 'point_of_interest', 'food', 'establishment']",37.53951259999999,127.0691379
탕절대부,"99-1 Dongil-ro 20-gil, 자양제4동, Gwangjin-gu","['restaurant', 'point_of_interest', 'food', 'establishment']",37.5398247,127.0690593
돈까스잘하는집,"5-13 자양제4동, Gwangjin-gu","['restaurant', 'point_of_interest', 'food', 'establishment']",37.5395675,127.0692114
Bantianyao Kaoyu,"2층, KR 서울특별시 광진구 자양동 5-13, 106 Dongil-ro 20-gil","['restaurant', 'point_of_interest', 'food', 'establishment']",37.53953,127.0692037
청춘라면,"Jayang-dong, Gwangjin-gu","['restaurant', 'point_of_interest', 'food', 'establishment']",37.53976189999999,127.0692114
화양장,South Korea,"['restaurant', 'point_of_interest', 'food', 'establishment']",37.54003970000001,127.0691558
kondae japanese restaurant ohyoumedang,"105 Dongil-ro 20-gil, Gwangjin-gu","['restaurant', 'point_of_interest', 'food', 'establishment']",37.53975519999999,127.0693416
봉골뱅이,자양동 7-2번지 지층1층 광진구 서울특별시 KR,"['restaurant', 'point_of_interest', 'food', 'establishment']",37.5397161,127.0694601
봉구네한우,"1층, 7-2번지 Jayang-dong, Gwangjin-gu","['restaurant', 'point_of_interest', 'food', 'establishment']",37.5397161,127.0694601
Junggyeong Sikgaek,"109 Dongil-ro 20-gil, Gwangjin-gu","['restaurant', 'point_of_interest', 'food', 'establishment']",37.539718,127.0694647
배부장찌개 건대점,"114 Dongil-ro 20-gil, 자양제4동, Gwangjin-gu","['restaurant', 'point_of_interest', 'food', 'establishment']",37.5394881,127.0695761
건대등신,"-dong, 2-14 자양제4동, 광진구","['restaurant', 'point_of_interest', 'food', 'establishment']",37.5395106,127.0695951
보영만두 건대점,"113 Dongil-ro 20-gil, Gwangjin-gu","['restaurant', 'point_of_interest', 'food', 'establishment']",37.53961930000001,127.0696435
DODO,"18 Achasan-ro 34-gil, Gwangjin-gu","['restaurant', 'point_of_interest', 'food', 'establishment']",37.5393434,127.069299
Dalgkal,"1층 1층, 2-13 Jayang-dong, 번지 지하, Gwangjin-gu","['restaurant', 'point_of_interest', 'food', 'establishment']",37.5393897,127.0695513
스시노백쉐프,"층 1층, KR 서울특별시 광진구 자양동 2-13, 1 번지 지하","['restaurant', 'point_of_interest', 'food', 'establishment']",37.5393897,127.0695513
정가네숯불갈비,"7-1 자양제4동, Gwangjin-gu","['restaurant', 'point_of_interest', 'food', 'establishment']",37.5399286,127.0695447
누들우들,"1층, 7-7 Jayang-dong, 번지 지하, Gwangjin-gu","['restaurant', 'food', 'point_of_interest', 'establishment']",37.5399503,127.0693395
끝돈 건대입구역점,"238 Achasan-ro, Gwangjin-gu","['restaurant', 'food', 'point_of_interest', 'establishment']",37.5398788,127.0695935
이조옹기구이,"7-7 자양제4동, Gwangjin-gu","['restaurant', 'food', 'point_of_interest', 'establishment']",37.53998410000001,127.069378
오리대감,"1-19 Jayang-dong, Gwangjin-gu","['restaurant', 'food', 'point_of_interest', 'establishment']",37.5395675,127.0697669
동경규동,"7-1 Jayang-dong, Gwangjin-gu","['restaurant', 'food', 'point_of_interest', 'establishment']",37.539935,127.0695705
고돌이국밥,"115 Dongil-ro 20-gil, Gwangjin-gu","['restaurant', 'food', 'point_of_interest', 'establishment']",37.5395835,127.0697808
두리아치킨,자양동 1-14번지 광진구 서울특별시 KR,"['restaurant', 'food', 'point_of_interest', 'establishment']",37.5398569,127.0697186
원조마포소금구이,"7-1 Jayang-dong, Gwangjin-gu","['restaurant', 'food', 'point_of_interest', 'establishment']",37.54004,127.06935
본죽앤비빔밥 건대점,"95 Neungdong-ro, Gwangjin-gu","['restaurant', 'food', 'point_of_interest', 'establishment']",37.53949619999999,127.0701623
안동참찜닭,"1-17 자양제4동, Gwangjin-gu","['restaurant', 'food', 'point_of_interest', 'establishment']",37.53953669999999,127.069927
서가숯불구이,"1-3 자양제4동, Gwangjin-gu","['restaurant', 'food', 'point_of_interest', 'establishment']",37.5398366,127.0698908
베어스타코 건대역점,"117 Dongil-ro 20-gil, Gwangjin-gu","['restaurant', 'food', 'point_of_interest', 'establishment']",37.5395494,127.0699204
진고개식당,"1-17 Jayang-dong, Gwangjin-gu","['restaurant', 'food', 'point_of_interest', 'establishment']",37.5395398,127.0699336
싸움의고수. 1인보쌈,"1-9 자양제4동, Gwangjin-gu","['restaurant', 'food', 'point_of_interest', 'establishment']",37.5395133,127.0700216
타로랑사주랑,자양동 1-9번지 2층 광진구 서울특별시 KR,"['restaurant', 'food', 'point_of_interest', 'establishment']",37.5395133,127.0700216
Le-Ong,"1-2 Jayang-dong, Gwangjin-gu","['restaurant', 'food', 'point_of_interest', 'establishment']",37.53945640000001,127.0701558
용감한왕만두,"244 Achasan-ro, Gwangjin-gu","['meal_takeaway', 'restaurant', 'food', 'point_of_interest', 'establishment']",37.53968309999999,127.070206
왕십리곱창,"1-3 Jayang-dong, Gwangjin-gu","['restaurant', 'food', 'point_of_interest', 'establishment']",37.539873,127.0699613
고기대통령,"2층, 2-1번지 Jayang-dong, Gwangjin-gu","['restaurant', 'food', 'point_of_interest', 'establishment']",37.5392376,127.0700262
333,"227-13 자양제3동, Gwangjin-gu","['restaurant', 'food', 'point_of_interest', 'establishment']",37.5396758,127.0707608
Mom's Touch,"92 Neungdong-ro, Gwangjin-gu","['restaurant', 'food', 'point_of_interest', 'establishment']",37.5394311,127.0709798
Matdolroman (Millstone Only) Jayang,자양동 767-4번지 1층 자양오피스텔 광진구 서울특별시 KR,"['restaurant', 'point_of_interest', 'food', 'establishment']",37.5398179,127.0829323
누구나홀딱반한닭 본사(티앤비코리아),"4층, Y타워, 129 Jayang-ro, Gwangjin-gu","['restaurant', 'point_of_interest', 'food', 'establishment']",37.5392841,127.0828557
소담소담,"251-54번지 Guui-dong, Gwangjin-gu","['restaurant', 'point_of_interest', 'food', 'establishment']",37.53978149999999,127.0833585
비스트로 플록,"769-12 Jayang-dong, Gwangjin-gu","['restaurant', 'point_of_interest', 'food', 'establishment']",37.5392267,127.0827099
Yeon-An,"1층, 251-53 Guui-dong, 번지 지하, Gwangjin-gu","['restaurant', 'point_of_interest', 'food', 'establishment']",37.5396065,127.0834361
족발3시30분 구의역점,"134 Jayang-ro, Guui-dong, Gwangjin-gu","['restaurant', 'point_of_interest', 'food', 'establishment']",37.5396065,127.0834361
순임이모밥줘,구의동 252-95번지 광진구 서울특별시 KR,"['restaurant', 'food', 'point_of_interest', 'establishment']",37.5393318,127.0834542
생물조개짬뽕,구의동 252-95번지 1층 광진구 서울특별시 KR,"['restaurant', 'food', 'point_of_interest', 'establishment']",37.5393318,127.0834542
Dodamjib,"130 Jayang-ro, Gwangjin-gu","['restaurant', 'food', 'point_of_interest', 'establishment']",37.5393318,127.0834542
소담골두부마을,구의동 251-49번지 1층 광진구 서울특별시 KR,"['restaurant', 'point_of_interest', 'food', 'establishment']",37.5396118,127.0842474
Myeonmyeonmyeon,구의동 251-49번지 광진구 서울특별시 KR,"['restaurant', 'point_of_interest', 'food', 'establishment']",37.5396118,127.0842474
Babhyang-Gi,"1층, 251-49번지 Guui-dong, Gwangjin-gu","['restaurant', 'point_of_interest', 'food', 'establishment']",37.5396118,127.0842474
Namchon,구의동 251-49번지 1층 102호 광진구 서울특별시 KR,"['restaurant', 'point_of_interest', 'food', 'establishment']",37.5396118,127.0842474
이담감자탕,"18 Jayang-ro 22-gil, Gwangjin-gu","['restaurant', 'point_of_interest', 'food', 'establishment']",37.5395557,127.0842636
남촌멸치국수,"251-49 Guui-dong, Gwangjin-gu","['restaurant', 'point_of_interest', 'food', 'establishment']",37.5396021,127.0842769
어쩌다김밥,"1층, 66번지 Guui-dong, 252, Gwangjin-gu","['restaurant', 'point_of_interest', 'food', 'establishment']",37.5394707,127.0842842
어수선집,구의동 251-48번지 ㅣ층 광진구 서울특별시 KR,"['restaurant', 'point_of_interest', 'food', 'establishment']",37.5396265,127.0844
연어상점,"1층, 251-44번지 Guui-dong, Gwangjin-gu","['restaurant', 'point_of_interest', 'food', 'establishment']",37.5396369,127.0845798
Sichilin,"25 Jayang-ro 22-gil, Gwangjin-gu","['restaurant', 'food', 'point_of_interest', 'establishment']",37.5396534,127.0847278
Gyeonghoelu,구의동 251-43번지 광진구 서울특별시 KR,"['restaurant', 'food', 'point_of_interest', 'establishment']",37.5396534,127.0847278
아부지가어부,"1층, 252-1번지 Guui-dong, Gwangjin-gu","['restaurant', 'food', 'point_of_interest', 'establishment']",37.539458,127.0847392
Dalg-Idalg,"251-62 Guui-dong, Gwangjin-gu","['restaurant', 'food', 'point_of_interest', 'establishment']",37.539886,127.0847453
철길부산집 구의점,"58 Achasan-ro 51-gil, Gwangjin-gu","['restaurant', 'food', 'point_of_interest', 'establishment']",37.53954229999999,127.084991
매운녀석들,구의동 257-41번지 구의동 광진구 서울특별시 KR,"['restaurant', 'food', 'point_of_interest', 'establishment']",37.5395051,127.0850102
엄탕 구의점,"248-137 Guui-dong, Gwangjin-gu","['restaurant', 'food', 'point_of_interest', 'establishment']",37.5398647,127.0850239
파전나라,구의동 248-137번지 광진구 서울특별시 KR,"['restaurant', 'food', 'point_of_interest', 'establishment']",37.5398648,127.0850239
소돼지불맛집,"251-7 Guui-dong, 번지 1층, Gwangjin-gu","['restaurant', 'food', 'point_of_interest', 'establishment']",37.5400404,127.0847876
파스타딜리버리,"1층, 135번지 Guui-dong, 248, Gwangjin-gu","['restaurant', 'food', 'point_of_interest', 'establishment']",37.5396893,127.0851687
신쵸쭈꾸미,구의동 248-135번지 구의동 1층 광진구 서울특별시 KR,"['restaurant', 'food', 'point_of_interest', 'establishment']",37.5396893,127.0851687
치킨플러스구의점,구의동 248-135번지 1층 광진구 서울특별시 KR,"['restaurant', 'food', 'point_of_interest', 'establishment']",37.5396893,127.0851687
진짜곱창,"1층 103호, 135번지 Guui-dong, 248, Gwangjin-gu","['restaurant', 'food', 'point_of_interest', 'establishment']",37.5396893,127.0851687
Heossine,"248-135 구의제1동, Gwangjin-gu","['restaurant', 'food', 'point_of_interest', 'establishment']",37.53969540000001,127.085169
호호치킨,구의동 257-40번지 1층 광진구 서울특별시 KR,"['restaurant', 'food', 'point_of_interest', 'establishment']",37.5395036,127.0851585
청년피자광진구점,"1층 103호, 257-39번지 Guui-dong, Gwangjin-gu","['restaurant', 'food', 'point_of_interest', 'establishment']",37.53954179999999,127.085321
시골정식,구의동 257-39번지 지상1층 광진구 서울특별시 KR,"['restaurant', 'food', 'point_of_interest', 'establishment']",37.53954179999999,127.085321
광양장어탕,"257-43번지 Guui-dong, Gwangjin-gu","['restaurant', 'food', 'point_of_interest', 'establishment']",37.5393287,127.0850384
Jang-Gunjib,"52 Achasan-ro 51-gil, 구의제1동, Gwangjin-gu","['restaurant', 'food', 'point_of_interest', 'establishment']",37.5393287,127.0850384
풍년상회,"1층, 53 Achasan-ro 53-gil, Gwangjin-gu","['restaurant', 'food', 'point_of_interest', 'establishment']",37.53955750000001,127.085607
수셰프치킨,"1층 101호, 18번지 Guui-dong, 248, Gwangjin-gu","['restaurant', 'food', 'point_of_interest', 'establishment']",37.5400181,127.0850504
Bistro The Peppercorn,"44 Jayang-ro 22-gil, Gwangjin-gu","['restaurant', 'food', 'point_of_interest', 'establishment']",37.539578,127.0858161
녹두마루,구의동 257-91번지 광진구 서울특별시 KR,"['restaurant', 'food', 'point_of_interest', 'establishment']",37.539578,127.0858161
빌리노 (villino),"257-49 Guui-dong, Gwangjin-gu","['restaurant', 'food', 'point_of_interest', 'establishment']",37.5395994,127.0861316
Tulupan,자양동 16-27번지 1층 복사 광진구 서울특별시 KR,"['restaurant', 'food', 'point_of_interest', 'establishment']",37.5399404,127.0637588
Nippon naeppong Konkuk University Head Office,"60 Dongil-ro 20-gil, 자양제4동, Gwangjin-gu","['restaurant', 'food', 'point_of_interest', 'establishment']",37.5404204,127.0666814
경양카츠 건대점,"1층, 연일빌딩, 60 Dongil-ro 20-gil, Gwangjin-gu","['restaurant', 'food', 'point_of_interest', 'establishment']",37.5404285,127.0666561
술병자리,"9-31 Jayang-dong, Gwangjin-gu","['restaurant', 'point_of_interest', 'food', 'establishment']",37.5401785,127.0673782
꽃피는곱창,"1층, 9-1번지 Jayang-dong, Gwangjin-gu","['restaurant', 'point_of_interest', 'food', 'establishment']",37.5402749,127.0671934
Malabang,"9-35 Jayang-dong, 번지 1층, Gwangjin-gu","['restaurant', 'point_of_interest', 'food', 'establishment']",37.54001780000001,127.0673799
가마니에,"18 Achasan-ro 30-gil, 자양제4동, Gwangjin-gu","['restaurant', 'point_of_interest', 'food', 'establishment']",37.54001780000001,127.0673799
청년다방 건대점,"청년다방 건대점, 64 Dongil-ro 20-gil, Gwangjin-gu","['restaurant', 'point_of_interest', 'food', 'establishment']",37.5403379,127.0670693
가마두에,"18 Achasan-ro 30-gil, Gwangjin-gu","['restaurant', 'point_of_interest', 'food', 'establishment']",37.5400136,127.0674064
암마 인도 레스토랑,"2 층, 72 Dongil-ro 20-gil, Gwangjin-gu","['restaurant', 'point_of_interest', 'food', 'establishment']",37.5401091,127.0674252
흠향원쌀국수,"9-31 Jayang-dong, Gwangjin-gu","['restaurant', 'point_of_interest', 'food', 'establishment']",37.5401091,127.0674252
바나바나,"1층, 72 Dongil-ro 20-gil, Gwangjin-gu","['restaurant', 'point_of_interest', 'food', 'establishment']",37.5401091,127.0674252
보쌈제복건대직영점,South Korea,"['restaurant', 'point_of_interest', 'food', 'establishment']",37.5401091,127.0674252
마초불고기,자양동 9-31번지 2층 광진구 서울특별시 KR,"['restaurant', 'point_of_interest', 'food', 'establishment']",37.5401091,127.0674252
샤오바오우육면 건대입구점,"64 Dongil-ro 20-gil, Gwangjin-gu","['restaurant', 'point_of_interest', 'food', 'establishment']",37.54037599999999,127.0671623
최고당돈가스 건대점,"67 Dongil-ro 20-gil, 자양제4동, Gwangjin-gu","['restaurant', 'food', 'point_of_interest', 'establishment']",37.5404198,127.0672984
강창구찹쌀진순대 건대점,"1층, 63 Dongil-ro 20-gil, Gwangjin-gu","['restaurant', 'food', 'point_of_interest', 'establishment']",37.5403988,127.0673579
도둑냉면아구사랑,"8-17 Jayang-dong, 번지 1층, Gwangjin-gu","['restaurant', 'food', 'point_of_interest', 'establishment']",37.5404721,127.0671762
IZAWA,"65, Dongil-ro 20-gil, Gwangjin-gu","['restaurant', 'food', 'point_of_interest', 'establishment']",37.5404721,127.0671762
핫오리 건대2호점,"9-16 Jayang-dong, Gwangjin-gu","['restaurant', 'point_of_interest', 'food', 'establishment']",37.5402114,127.0676029
삼촌도너츠,"8-22 Jayang-dong, Gwangjin-gu","['restaurant', 'point_of_interest', 'food', 'establishment']",37.5403547,127.0676498
Hangari Sushi,"82 Dongil-ro 20-gil, Gwangjin-gu","['restaurant', 'point_of_interest', 'food', 'establishment']",37.5400569,127.0680139
Bon,"7-30 Jayang-dong, 번지 1층, Gwangjin-gu","['restaurant', 'food', 'point_of_interest', 'establishment']",37.54032309999999,127.0678208
칭구네포차,"7-30번지 Jayang-dong, Gwangjin-gu","['restaurant', 'food', 'point_of_interest', 'establishment']",37.54032309999999,127.0678208
코코버블티 건대입구점,"8-22 Jayang-dong, Gwangjin-gu","['restaurant', 'food', 'point_of_interest', 'establishment']",37.540361,127.0675997
깐풍판다,"1층, 8-22번지 Jayang-dong, Gwangjin-gu","['restaurant', 'food', 'point_of_interest', 'establishment']",37.540361,127.0675997
송프로피자,"Jayang-dong, Gwangjin-gu","['restaurant', 'food', 'point_of_interest', 'establishment']",37.5403174,127.0678504
핵스테이크 건대점,"1층, 71 자양제4동 Dongil-ro 20-gil, Gwangjin-gu","['restaurant', 'food', 'point_of_interest', 'establishment']",37.5403986,127.0674612
기분좋은하루돈까스,"7-32 Jayang-dong, Gwangjin-gu","['restaurant', 'food', 'point_of_interest', 'establishment']",37.5404285,127.0679337
Sella,"7-32 Jayang-dong, Gwangjin-gu","['restaurant', 'food', 'point_of_interest', 'establishment']",37.5404285,127.0679337
두마리찜닭두찜건대점,"7-13 Jayang-dong, 번지 2층, Gwangjin-gu","['restaurant', 'food', 'point_of_interest', 'establishment']",37.54003970000001,127.0684433
원조외파가,"1층, 89 자양제4동 Dongil-ro 20-gil, Gwangjin-gu","['restaurant', 'food', 'point_of_interest', 'establishment']",37.54003970000001,127.0684433
역전우동(건대입구),"7-25 자양제4동, Gwangjin-gu","['restaurant', 'food', 'point_of_interest', 'establishment']",37.5405147,127.0682084
Mom's Touch,"224 Achasan-ro, Gwangjin-gu","['restaurant', 'food', 'point_of_interest', 'establishment']",37.54052589999999,127.0681745
금강수산,"230 Achasan-ro, Gwangjin-gu","['restaurant', 'food', 'point_of_interest', 'establishment']",37.5401979,127.0687499
雪冰,"자양제4동, 광진구","['restaurant', 'food', 'point_of_interest', 'establishment']",37.5403512,127.0688333
GOATEE DRAFT BEER,"6-5 Hwayang-dong, Gwangjin-gu","['restaurant', 'food', 'point_of_interest', 'establishment']",37.54005,127.069958
던킨도너츠 건대입구역사점,"7-3 Hwayang-dong, Gwangjin-gu","['restaurant', 'food', 'point_of_interest', 'establishment']",37.5403174,127.0699613
장인 닭갈비,"5층, 연한빌딩, 주차가능, 6-2 Hwayang-dong, Gwangjin-gu","['restaurant', 'food', 'point_of_interest', 'establishment']",37.5404079,127.0700749
Seol-Won,"6-6 Hwayang-dong, Gwangjin-gu","['restaurant', 'food', 'point_of_interest', 'establishment']",37.5404285,127.0701557
쑤담샤브샤브,"241 Achasan-ro, Hwayang-dong, Gwangjin-gu","['restaurant', 'food', 'point_of_interest', 'establishment']",37.54046659999999,127.0701365
엘리스키친,화양동 6-2번지 302호 광진구 서울특별시 KR,"['restaurant', 'food', 'point_of_interest', 'establishment']",37.54046659999999,127.0701365
Ojju,화양동 6-2번지 1층 광진구 서울특별시 KR,"['restaurant', 'food', 'point_of_interest', 'establishment']",37.54046659999999,127.0701365
한촌설렁탕 건대입구역점,"241 Achasan-ro, Hwayang-dong, Gwangjin-gu","['restaurant', 'food', 'point_of_interest', 'establishment']",37.54046659999999,127.0701365
테이스티마켓,"6-2 Hwayang-dong, Gwangjin-gu","['restaurant', 'food', 'point_of_interest', 'establishment']",37.54046659999999,127.0701365
허수아비돈까스건대점,"6-6 Hwayang-dong, Gwangjin-gu","['restaurant', 'food', 'point_of_interest', 'establishment']",37.5402619,127.070489
더풀하우스,"6-1 Hwayang-dong, Gwangjin-gu","['restaurant', 'food', 'point_of_interest', 'establishment']",37.5403175,127.0705168
LOTTERIA,"110 Neungdong-ro, Gwangjin-gu","['restaurant', 'point_of_interest', 'food', 'establishment']",37.5403677,127.0711722
Haidilao Hotpot Konkuk University,"2층, 스타시티 영존, 110 Neungdong-ro, Gwangjin-gu","['restaurant', 'point_of_interest', 'food', 'establishment']",37.54038790000001,127.0711638
신선설농탕 자양점,"139 Jayang-ro, Gwangjin-gu","['restaurant', 'point_of_interest', 'food', 'establishment']",37.5402789,127.0828938
달나라고양이,"Guui-dong, Gwangjin-gu","['restaurant', 'point_of_interest', 'food', 'establishment']",37.540313,127.084883
쿠시요코,"251-82 Guui-dong, Gwangjin-gu","['restaurant', 'point_of_interest', 'food', 'establishment']",37.5403661,127.0848847
이자카야이옌,"1층, 이자카야이옌, 248-95 구의, Gwangjin-gu","['restaurant', 'food', 'point_of_interest', 'establishment']",37.54045989999999,127.0851175
왕벌식당,자양동 13-44번지 1층 101호 광진구 서울특별시 KR,"['restaurant', 'food', 'point_of_interest', 'establishment']",37.5408673,127.0654276
Kingseunaeg,"13-44 Jayang-dong, Gwangjin-gu","['restaurant', 'food', 'point_of_interest', 'establishment']",37.5409039,127.0654568
김영태스시&사시미마을 건대점,"1 Achasan-ro 24-gil, Gwangjin-gu","['restaurant', 'food', 'point_of_interest', 'establishment']",37.5409383,127.0652932
Seongsu Wandang,"10-1 Jayang-dong, Gwangjin-gu","['restaurant', 'food', 'point_of_interest', 'establishment']",37.5406854,127.066151
Kimchi Bus,"200 Achasan-ro, Gwangjin-gu","['restaurant', 'food', 'point_of_interest', 'establishment']",37.5408693,127.0660137
소노키라멘건대본점,"8-8 Jayang-dong, 번지 2층, Gwangjin-gu","['restaurant', 'food', 'point_of_interest', 'establishment']",37.5407471,127.0667394
데이비스다이너,자양동 8-8번지 가동 1층 광진구 서울특별시 KR,"['restaurant', 'food', 'point_of_interest', 'establishment']",37.5407471,127.0667394
김도사불백 건대점,"8-14 Jayang-dong, Gwangjin-gu","['restaurant', 'food', 'point_of_interest', 'establishment']",37.5405415,127.0670651
그집돼지건대입구점,"1층, 8-14번지 Jayang-dong, Gwangjin-gu","['restaurant', 'food', 'point_of_interest', 'establishment']",37.5405298,127.0670714
리틀베이징,"8-30 자양제4동, Gwangjin-gu","['restaurant', 'point_of_interest', 'food', 'establishment']",37.5409284,127.0668505
로스핫도그 Los Hotdog,"1층, 65 Dongil-ro 20-gil, Gwangjin-gu, 서울","['restaurant', 'point_of_interest', 'food', 'establishment']",37.54051450000001,127.0671931
미식가광진1호,"8-27번지 Jayang-dong, Gwangjin-gu","['restaurant', 'point_of_interest', 'food', 'establishment']",37.5406795,127.0670911
건대부페,"8-4 Jayang-dong, Gwangjin-gu","['restaurant', 'point_of_interest', 'food', 'establishment']",37.54081730000001,127.0671005
Pomonseu,"1층, 베트남쌀국수전문점, 208 Achasan-ro, Gwangjin-gu","['restaurant', 'point_of_interest', 'food', 'establishment']",37.54075410000001,127.0673264
우리김밥,"218 Achasan-ro, 자양제4동, Gwangjin-gu","['restaurant', 'point_of_interest', 'food', 'establishment']",37.54073229999999,127.0673778
앤하우스,"8-24 자양제4동, Gwangjin-gu","['restaurant', 'point_of_interest', 'food', 'establishment']",37.54073229999999,127.0673778
진퉁해장국감자탕,자양동 8-4번지 1층 광진구 서울특별시 KR,"['restaurant', 'point_of_interest', 'food', 'establishment']",37.5408545,127.067107
보승회관 건대입구역점,"214 Achasan-ro, Gwangjin-gu","['restaurant', 'food', 'point_of_interest', 'establishment']",37.5408666,127.0671171
엉터리생고기 건대역점,"성원빌딩, 218 Jayang-dong, Achasan-ro, Gwangjin-gu","['restaurant', 'food', 'point_of_interest', 'establishment']",37.5407618,127.067406
방이 샤브샤브 칼국수 건대점,"212 Achasan-ro, Jayang-dong, Gwangjin-gu","['restaurant', 'food', 'point_of_interest', 'establishment']",37.5409212,127.0669246
파라호민물장어,"8-30 Jayang-dong, Gwangjin-gu","['restaurant', 'food', 'point_of_interest', 'establishment']",37.5409006,127.0668227
파라호매운탕,"8-1 자양제4동, Gwangjin-gu","['restaurant', 'point_of_interest', 'food', 'establishment']",37.5405784,127.0676377
Rose Dining Table,"200 Achasan-ro, Seongdong-gu","['restaurant', 'point_of_interest', 'food', 'establishment']",37.5406381,127.0677705
숯불에구워먹는생삼겹살,"8-1 Jayang-dong, 번지 1층, Gwangjin-gu","['restaurant', 'point_of_interest', 'food', 'establishment']",37.5405784,127.0676377
Geondaejeom,자양동 8-1번지 3층 3호 노유송천빌딩 광진구 서울특별시 KR,"['restaurant', 'point_of_interest', 'food', 'establishment']",37.5405784,127.0676377
Oh! 닭꼬치,"Jayang-dong, Gwangjin-gu","['restaurant', 'point_of_interest', 'food', 'establishment']",37.5405707,127.0680254
Oh! Dakggochi,"7-25 자양제4동, Gwangjin-gu","['restaurant', 'food', 'point_of_interest', 'establishment']",37.5405666,127.0680297
站前烏龍,"224 Achasan-ro, 자양제4동, Gwangjin-gu","['restaurant', 'food', 'point_of_interest', 'establishment']",37.54053319999999,127.0680762
백미원 건대점,"224 Achasan-ro, Gwangjin-gu","['restaurant', 'food', 'point_of_interest', 'establishment']",37.5405535,127.0680953
Kebab Inn,"221 Achasan-ro, Gwangjin-gu","['restaurant', 'point_of_interest', 'food', 'establishment']",37.5409331,127.0682045
정성본 건대점,"7-44 Hwayang-dong, Gwangjin-gu","['restaurant', 'point_of_interest', 'food', 'establishment']",37.5408729,127.0684614
오집대패쌈밥집,"7-44 Hwayang-dong, Gwangjin-gu","['restaurant', 'point_of_interest', 'food', 'establishment']",37.5409007,127.0684614
먹구갈건대,"212동 2층 010호, 번지 2호선건대입구역, 7-3 Hwayang-dong, Gwangjin-gu","['restaurant', 'point_of_interest', 'food', 'establishment']",37.5407487,127.0690014
Jingimbab,"212동 010호, 번지 2호선건대입구역, 7-3 Hwayang-dong, Gwangjin-gu","['restaurant', 'point_of_interest', 'food', 'establishment']",37.5407487,127.0690014
어묵나라,"011호, 점포건대입구역, KR 서울특별시 광진구 화양동 7-3, 동 번지 212","['restaurant', 'point_of_interest', 'food', 'establishment']",37.5407487,127.0690014
Burger King,"229 Achasan-ro, Hwayang-dong, Gwangjin-gu","['restaurant', 'point_of_interest', 'food', 'establishment']",37.5407487,127.0690014
Blue Rail,"７−３ Hwayang-dong, Gwangjin-gu","['restaurant', 'point_of_interest', 'food', 'establishment']",37.5407705,127.0690383
프레퍼스다이어트푸드건대점(preppers diet food),"1층, 229 Achasan-ro, Gwangjin-gu","['restaurant', 'point_of_interest', 'food', 'establishment']",37.54081559999999,127.0690315
스테이크어스 건대점,"202호, 스테이크어스, 229 Achasan-ro, Gwangjin-gu","['restaurant', 'point_of_interest', 'food', 'establishment']",37.5409507,127.0688177
Gimgyeongseon,"7-35번지 Hwayang-dong, Gwangjin-gu","['restaurant', 'point_of_interest', 'food', 'establishment']",37.5409075,127.0690255
놀부부대찌개 화양점,"7-39 Hwayang-dong, Gwangjin-gu","['restaurant', 'food', 'point_of_interest', 'establishment']",37.5409007,127.069378
더후라이팬,"7-38 Hwayang-dong, Gwangjin-gu","['restaurant', 'food', 'point_of_interest', 'establishment']",37.5409007,127.0691836
Gamalo,"100 Dongil-ro 22-gil, Gwangjin-gu","['restaurant', 'food', 'point_of_interest', 'establishment']",37.5407896,127.0694613
Deogeulil,화양동 7-12번지 광진구 서울특별시 KR,"['restaurant', 'food', 'point_of_interest', 'establishment']",37.5405742,127.0694992
(주)비엠사오건대점,화양동 7-12번지 하동 2층 광진구 서울특별시 KR,"['restaurant', 'food', 'point_of_interest', 'establishment']",37.5405742,127.0694992
두루치기닭갈비,"7-42 Hwayang-dong, Gwangjin-gu","['restaurant', 'food', 'point_of_interest', 'establishment']",37.5408451,127.0694891
주민식당,"7-39 Hwayang-dong, 번지 2층, Gwangjin-gu","['restaurant', 'food', 'point_of_interest', 'establishment']",37.5408965,127.0693538
모던통닭,"1층, 7-39번지 Hwayang-dong, Gwangjin-gu","['restaurant', 'food', 'point_of_interest', 'establishment']",37.5408965,127.0693538
쭈꾸미도사 건대점,"94 Dongil-ro 22-gil, Gwangjin-gu","['restaurant', 'food', 'point_of_interest', 'establishment']",37.5409351,127.0692232
미친양꼬치,"2층, 7-38 Hwayang-dong, Gwangjin-gu","['restaurant', 'food', 'point_of_interest', 'establishment']",37.5409351,127.0692232
사우스빌 바베큐,"94 Dongil-ro 22-gil, 화양동, Gwangjin-gu","['restaurant', 'food', 'point_of_interest', 'establishment']",37.5409351,127.0692232
미쓰족발,"241 연한빌딩 1층, Achasan-ro, Gwangjin-gu","['restaurant', 'point_of_interest', 'food', 'establishment']",37.5405073,127.0701345
막국수 오래된집,South Korea,"['restaurant', 'point_of_interest', 'food', 'establishment']",37.5406707,127.0700193
Maesdol,"6-2 Hwayang-dong, Gwangjin-gu","['restaurant', 'point_of_interest', 'food', 'establishment']",37.5405952,127.0701279
Solma-Eul,"6-2 Hwayang-dong, Gwangjin-gu","['restaurant', 'point_of_interest', 'food', 'establishment']",37.5405952,127.0701279
남해해물탕아구찜,"6-2 Hwayang-dong, Gwangjin-gu","['restaurant', 'point_of_interest', 'food', 'establishment']",37.5405952,127.0701279
멧돌순두부,"6-2 Hwayang-dong, Gwangjin-gu","['restaurant', 'point_of_interest', 'food', 'establishment']",37.5405952,127.0701279
Chuncheonjib,"7 Achasan-ro 33-gil, 화양동, Gwangjin-gu","['restaurant', 'point_of_interest', 'food', 'establishment']",37.5407,127.0699715
프리모바치오 건대점,"241 Achasan-ro, Gwangjin-gu","['restaurant', 'point_of_interest', 'food', 'establishment']",37.5406065,127.0701469
Geondae Tasty Street,"7-1 Hwayang-dong, Gwangjin-gu","['restaurant', 'point_of_interest', 'food', 'establishment']",37.5406984,127.0700497
건대술집 푸른술집할라,"107 Dongil-ro 22-gil, Gwangjin-gu","['bar', 'night_club', 'restaurant', 'point_of_interest', 'food', 'establishment']",37.5408448,127.0699829
백소정 건대본점,"6-16 Hwayang-dong, Gwangjin-gu","['restaurant', 'point_of_interest', 'food', 'establishment']",37.54058370000001,127.0703636
Dongdaemun Yupdduk,"111 Dongil-ro 22-gil, Gwangjin-gu","['restaurant', 'point_of_interest', 'food', 'establishment']",37.5407689,127.0702324
서브웨이 건대입구점,"6-16 Hwayang-dong, Gwangjin-gu","['restaurant', 'point_of_interest', 'food', 'establishment']",37.540577,127.0703847
할머니보쌈,"8-26 Hwayang-dong, Gwangjin-gu","['restaurant', 'point_of_interest', 'food', 'establishment']",37.5409007,127.0698502
황소식당 화양동,"8-26 Hwayang-dong, Gwangjin-gu","['restaurant', 'point_of_interest', 'food', 'establishment']",37.5409007,127.0698502
요요린촨촨샹幺幺林串串香,"105 Dongil-ro 22-gil, Hwayang-dong, Gwangjin-gu","['restaurant', 'point_of_interest', 'food', 'establishment']",37.5409158,127.0698537
백철판0410 건대역점,"105 Dongil-ro 22-gil, Hwayang-dong, Gwangjin-gu","['restaurant', 'point_of_interest', 'food', 'establishment']",37.5409158,127.0698537
영동교집,"5-71 Hwayang-dong, Gwangjin-gu","['restaurant', 'point_of_interest', 'food', 'establishment']",37.5408441,127.070357
Simseuntang,"5-90 Hwayang-dong, Gwangjin-gu","['restaurant', 'point_of_interest', 'food', 'establishment']",37.5408729,127.0705168
안나라사,"5-90 Hwayang-dong, Gwangjin-gu","['restaurant', 'food', 'point_of_interest', 'establishment']",37.5408729,127.0705168
서서갈비,"5-84 Hwayang-dong, Gwangjin-gu","['restaurant', 'food', 'point_of_interest', 'establishment']",37.540817,127.070739
강촌식당,"5-72 Hwayang-dong, Gwangjin-gu","['restaurant', 'food', 'point_of_interest', 'establishment']",37.5408729,127.070239
羊肉,"Hwayang-dong, Gwangjin-gu","['restaurant', 'food', 'point_of_interest', 'establishment']",37.5409247,127.0704092
Jukkumi,화양동 5-70번지 지층 화양동 광진구 서울특별시 KR,"['restaurant', 'food', 'point_of_interest', 'establishment']",37.5409247,127.0704092
Ubanjang,"1층, 109 화양동 Neungdong-ro, Gwangjin-gu","['restaurant', 'food', 'point_of_interest', 'establishment']",37.5408936,127.070653
뿔레치킨,"5-72 Hwayang-dong, Gwangjin-gu","['restaurant', 'food', 'point_of_interest', 'establishment']",37.5408897,127.0702082
First Primo Lounge,"5-84 화양동, Gwangjin-gu","['restaurant', 'food', 'point_of_interest', 'establishment']",37.5408936,127.070727
Haedaljib,"16-4 Achasan-ro 33-gil, Gwangjin-gu","['restaurant', 'food', 'point_of_interest', 'establishment']",37.5409568,127.0703863
사루노유메,"5-89 Hwayang-dong, Gwangjin-gu","['restaurant', 'food', 'point_of_interest', 'establishment']",37.5409563,127.0705446
죽이야기 건국대병원점,"110 Neungdong-ro, Gwangjin-gu","['restaurant', 'food', 'point_of_interest', 'establishment']",37.54052859999999,127.0712225
소담김밥,"스타시티영존빌딩, KR 서울특별시 광진구 화양동 4-20번지 지하2층 B208호","['restaurant', 'food', 'point_of_interest', 'establishment']",37.54064960000001,127.0714118
명동할머니국수건대스타시티점,South Korea,"['restaurant', 'food', 'point_of_interest', 'establishment']",37.54064960000001,127.0714118
Ashley Queens,"110 Neungdong-ro, Gwangjin-gu","['restaurant', 'food', 'point_of_interest', 'establishment']",37.5409098,127.0715119
구의동 손칼국수,"251-177 Guui-dong, Gwangjin-gu","['restaurant', 'food', 'point_of_interest', 'establishment']",37.540932,127.083935
최고집 풍천장어,"1층, 79 Guui-dong, Achasan-ro 51-gil, Gwangjin-gu","['restaurant', 'food', 'point_of_interest', 'establishment']",37.54059869999999,127.0850053
조선한식,자양동 241-1번지 1층 광진구 서울특별시 KR,"['restaurant', 'food', 'point_of_interest', 'establishment']",37.5413019,127.0639884
청정옥샤브샤브,"1층, 24-2번지 Jayang-dong, Gwangjin-gu","['restaurant', 'food', 'point_of_interest', 'establishment']",37.5410824,127.0636913
황가네나주곰탕,자양동 24-2번지 1층 광진구 서울특별시 KR,"['restaurant', 'food', 'point_of_interest', 'establishment']",37.5410824,127.0636913
장화신은젖소,"장화신은젖소, 서울특별시 자양4동, 3층 HALL, MARKET","['restaurant', 'food', 'point_of_interest', 'establishment']",37.541332,127.0653344
Analog Kitchen,"200 Achasan-ro, Gwangjin-gu","['restaurant', 'food', 'point_of_interest', 'establishment']",37.5412511,127.0656985
Niskoli,"3층, 커먼그라운드 MH동, 200 Achasan-ro, Gwangjin-gu","['restaurant', 'food', 'point_of_interest', 'establishment']",37.5412723,127.0657131
포몬스(건대점),South Korea,"['restaurant', 'food', 'point_of_interest', 'establishment']",37.540984,127.0664616
빔스다이너,"17-1 Jayang-dong, 번지 3층, Gwangjin-gu","['restaurant', 'food', 'point_of_interest', 'establishment']",37.5411175,127.0660706
벼락닭꼬치,"17-1번지 Jayang-dong, Gwangjin-gu","['restaurant', 'food', 'point_of_interest', 'establishment']",37.5411175,127.0660706
Beomga,"17-1번지 Jayang-dong, Gwangjin-gu","['restaurant', 'food', 'point_of_interest', 'establishment']",37.5411175,127.0660706
side show,"17-1 Jayang-dong, Gwangjin-gu","['restaurant', 'food', 'point_of_interest', 'establishment']",37.54114360000001,127.0660855
자버자버,"48-8 화양동, Gwangjin-gu","['restaurant', 'food', 'point_of_interest', 'establishment']",37.541333,127.0659852
조마루뼈다귀건대점,"8-3 자양제4동, Gwangjin-gu","['restaurant', 'food', 'point_of_interest', 'establishment']",37.5410951,127.0664061
Poloi,"8-3 Jayang-dong, Gwangjin-gu","['restaurant', 'food', 'point_of_interest', 'establishment']",37.540984,127.0664616
Gyejinsang,"Hwayang-dong, Gwangjin-gu","['restaurant', 'food', 'point_of_interest', 'establishment']",37.54129819999999,127.0668616
카페루미건대점,"48-14 Hwayang-dong, Gwangjin-gu","['restaurant', 'point_of_interest', 'food', 'establishment']",37.5410951,127.0679059
보쌈족발,South Korea,"['restaurant', 'point_of_interest', 'food', 'establishment']",37.5410673,127.0679337
황제참치,"48-31 Hwayang-dong, Gwangjin-gu","['restaurant', 'point_of_interest', 'food', 'establishment']",37.54134499999999,127.0678504
왕관치킨-炸雞鱿鱼,"48-31 Hwayang-dong, Gwangjin-gu","['restaurant', 'point_of_interest', 'food', 'establishment']",37.54135649999999,127.0678125
여왕돼지,"48-33번지 Hwayang-dong, Gwangjin-gu","['restaurant', 'point_of_interest', 'food', 'establishment']",37.54131429999999,127.0679375
Sinla,"48-28 Hwayang-dong, Gwangjin-gu","['restaurant', 'point_of_interest', 'food', 'establishment']",37.5414006,127.0676282
홍콩반점0410 건대역점,"7-4 Hwayang-dong, Gwangjin-gu","['restaurant', 'point_of_interest', 'food', 'establishment']",37.540984,127.0682114
믹존스피자 건대입구점,"8 Achasan-ro 29-gil, 화양동, Gwangjin-gu","['restaurant', 'point_of_interest', 'food', 'establishment']",37.5411784,127.0683225
촌천닭갈비와야채곱창,"7-4 Hwayang-dong, Gwangjin-gu","['restaurant', 'point_of_interest', 'food', 'establishment']",37.540984,127.0682114
한경길의닭삼 건대점,"7-4 Hwayang-dong, Gwangjin-gu","['restaurant', 'point_of_interest', 'food', 'establishment']",37.540984,127.0682114
Kkeulliji,화양동 7-4번지 화양동 1층 3호 광진구 서울특별시 KR,"['restaurant', 'point_of_interest', 'food', 'establishment']",37.5410367,127.0682748
팔각도 건대점(8gakdo kondae),"7-4 Hwayang-dong, Gwangjin-gu","['restaurant', 'point_of_interest', 'food', 'establishment']",37.5411211,127.068208
로니로티 건대점,"225 Achasan-ro, Gwangjin-gu","['restaurant', 'point_of_interest', 'food', 'establishment']",37.5409582,127.0684686
Qoo Qoo Bluerail Konkuk University Branch,"225 Achasan-ro, Gwangjin-gu","['restaurant', 'point_of_interest', 'food', 'establishment']",37.5409582,127.0684686
SALTCOKE,화양동 7-5번지 1층 광진구 서울특별시 KR,"['restaurant', 'point_of_interest', 'food', 'establishment']",37.5412019,127.06831
영동양대창,"2층, 7-25 Hwayang-dong, 번지 1호, Gwangjin-gu","['restaurant', 'point_of_interest', 'food', 'establishment']",37.5411012,127.0684584
진선양대창,"7-25 Hwayang-dong, Gwangjin-gu","['restaurant', 'point_of_interest', 'food', 'establishment']",37.5411012,127.0684584
진선소양대창,"80-1 Dongil-ro 22-gil, Hwayang-dong, Gwangjin-gu","['restaurant', 'point_of_interest', 'food', 'establishment']",37.5411012,127.0684584
건대옛골,"7-6 Hwayang-dong, Gwangjin-gu","['restaurant', 'point_of_interest', 'food', 'establishment']",37.5411506,127.0684892
멋있는사람들,"48-25 Hwayang-dong, Gwangjin-gu","['restaurant', 'point_of_interest', 'food', 'establishment']",37.5412617,127.0680726
Lapae,"1층, 48-25번지 Hwayang-dong, Gwangjin-gu","['restaurant', 'point_of_interest', 'food', 'establishment']",37.5412803,127.0680816
보리든해,"48-25 Hwayang-dong, Gwangjin-gu","['restaurant', 'food', 'point_of_interest', 'establishment']",37.5412803,127.0680816
함밝×파스타리코,"48-25 Hwayang-dong, Gwangjin-gu","['restaurant', 'food', 'point_of_interest', 'establishment']",37.5413106,127.068207
초박살껍데기,"2층, 7-26 Hwayang-dong, 번지 1층, Gwangjin-gu","['restaurant', 'food', 'point_of_interest', 'establishment']",37.5410474,127.0686073
바른치킨 건대역점,"48-25 화양동, Gwangjin-gu","['restaurant', 'food', 'point_of_interest', 'establishment']",37.54132719999999,127.0681024
소래포구,화양동 7-28번지 1층 광진구 서울특별시 KR,"['restaurant', 'food', 'point_of_interest', 'establishment']",37.5411297,127.068647
킹케밥 건대점 - King Kebab Kondae Branch,"1floor, 82 Dongil-ro 22-gil, Gwangjin-gu","['restaurant', 'food', 'point_of_interest', 'establishment']",37.541174,127.0686654
서울뚝배기 건대직영점,"9-90 Hwayang-dong, Gwangjin-gu","['restaurant', 'food', 'point_of_interest', 'establishment']",37.5413749,127.0684214
오징어촌건대점,"7-29 Hwayang-dong, Gwangjin-gu","['restaurant', 'food', 'point_of_interest', 'establishment']",37.541084,127.0687936
맥반석돌솥구이,"7-33 Hwayang-dong, Gwangjin-gu","['restaurant', 'food', 'point_of_interest', 'establishment']",37.54101179999999,127.0689336
88선수촌,"1층, 7-33번지 Hwayang-dong, Gwangjin-gu","['restaurant', 'food', 'point_of_interest', 'establishment']",37.5410321,127.068947
단골손님,화양동 7-33번지 광진구 서울특별시 KR,"['restaurant', 'food', 'point_of_interest', 'establishment']",37.5410321,127.068947
함선생,"2층, 88 Dongil-ro 22-gil, Gwangjin-gu","['restaurant', 'food', 'point_of_interest', 'establishment']",37.54105730000001,127.0689602
종로빈대떡 신사업9호점,"92 Dongil-ro 22-gil, Hwayang-dong, Gwangjin-gu","['restaurant', 'food', 'point_of_interest', 'establishment']",37.5409916,127.0690697
성주의한상,"9-86번지 Hwayang-dong, Gwangjin-gu","['restaurant', 'point_of_interest', 'food', 'establishment']",37.5411479,127.0691277
조선참갈빗살,화양동 9-86번지 광진구 서울특별시 KR,"['restaurant', 'point_of_interest', 'food', 'establishment']",37.5411479,127.0691277
시카고피자,화양동 8-99번지 1층 광진구 서울특별시 KR,"['restaurant', 'point_of_interest', 'food', 'establishment']",37.5410882,127.0693174
오릭스빠,"9-23 Hwayang-dong, Gwangjin-gu","['restaurant', 'point_of_interest', 'food', 'establishment']",37.5412836,127.0691883
춘천닭갈비,"8-101 Hwayang-dong, Gwangjin-gu","['restaurant', 'food', 'point_of_interest', 'establishment']",37.54101179999999,127.0695447
마미떡 건대점,"2층, 95 Dongil-ro 22-gil, Gwangjin-gu","['restaurant', 'meal_delivery', 'meal_takeaway', 'food', 'point_of_interest', 'establishment']",37.5410431,127.0694345
더 스파이시,"8-100 Hwayang-dong, Gwangjin-gu","['restaurant', 'food', 'point_of_interest', 'establishment']",37.5410431,127.0694345
솔트코크샵일육칠오,화양동 8-100번지 하동 1층 광진구 서울특별시 KR,"['restaurant', 'food', 'point_of_interest', 'establishment']",37.5410431,127.0694345
대양참치 건대본점,South Korea,"['restaurant', 'food', 'point_of_interest', 'establishment']",37.54101179999999,127.0695447
건대맛의거리상가번영회,"6 Achasan-ro 31-gil, Gwangjin-gu","['restaurant', 'point_of_interest', 'food', 'establishment']",37.54124669999999,127.0694025
고기굽는놈,"8-29 Hwayang-dong, Gwangjin-gu","['restaurant', 'point_of_interest', 'food', 'establishment']",37.5412873,127.0694315
골목대장,"8-29 Hwayang-dong, Gwangjin-gu","['restaurant', 'point_of_interest', 'food', 'establishment']",37.5412873,127.0694315
서울닭한마리,"9-23 Hwayang-dong, Gwangjin-gu","['restaurant', 'point_of_interest', 'food', 'establishment']",37.5413173,127.0691836
60년전통신촌황소곱창건대직영점,"2층, 9-72 Hwayang-dong, 번지 1호, Gwangjin-gu","['restaurant', 'point_of_interest', 'food', 'establishment']",37.5413541,127.0692168
여기가핫스팟,"8-27 Hwayang-dong, 번지 1층, Gwangjin-gu","['restaurant', 'point_of_interest', 'food', 'establishment']",37.5411228,127.0698194
Paik's Pan,"101, 동일로22길, 광진구","['restaurant', 'point_of_interest', 'food', 'establishment']",37.5411228,127.0698194
힘찬쭈꾸미소불고기,화양동 8-35번지 1층 광진구 서울특별시 KR,"['restaurant', 'point_of_interest', 'food', 'establishment']",37.5413805,127.0694824
Yug-Ilgwan,"1층, 2층, 10 Achasan-ro 31-gil, Gwangjin-gu","['restaurant', 'point_of_interest', 'food', 'establishment']",37.5413805,127.0694824
土豆湯專門店 Dob,"9 Achasan-ro 31-gil, 화양동, Gwangjin-gu","['restaurant', 'point_of_interest', 'food', 'establishment']",37.541409,127.069324
김덕후의 곱창조 건대점,"24-1, 아차산로33길, 광진구","['restaurant', 'food', 'point_of_interest', 'establishment']",37.5411759,127.0699542
조선부뚜막건대점,"군자대한곱창, KR 서울특별시 광진구, 8-22 Hwayang-dong, 번지","['restaurant', 'food', 'point_of_interest', 'establishment']",37.5411474,127.0700896
대한치킨당,"8-22 Hwayang-dong, 번지 2층, Gwangjin-gu","['restaurant', 'food', 'point_of_interest', 'establishment']",37.5411474,127.0700896
해피투게더,"5-73 Hwayang-dong, Gwangjin-gu","['restaurant', 'food', 'point_of_interest', 'establishment']",37.540984,127.0702668
육회먹은 연어 건대점,"20 Achasan-ro 33-gil, 화양동, Gwangjin-gu","['restaurant', 'food', 'point_of_interest', 'establishment']",37.5411092,127.070322
대포항횟집,"8-94 Hwayang-dong, Gwangjin-gu","['restaurant', 'food', 'point_of_interest', 'establishment']",37.5413173,127.0700446
대원숯불갈비,"8-95 Hwayang-dong, Gwangjin-gu","['restaurant', 'food', 'point_of_interest', 'establishment']",37.54126179999999,127.0701835
전국포크생고기,"8-95 Hwayang-dong, Gwangjin-gu","['restaurant', 'food', 'point_of_interest', 'establishment']",37.5412895,127.0701835
쿠마상회,"8-86 Hwayang-dong, Gwangjin-gu","['restaurant', 'food', 'point_of_interest', 'establishment']",37.5413694,127.0698572
Mitinglum,"5-75 Hwayang-dong, 번지 2층, Gwangjin-gu","['restaurant', 'food', 'point_of_interest', 'establishment']",37.54118369999999,127.0703528
철판25,화양동 5-75번지 광진구 서울특별시 KR,"['restaurant', 'point_of_interest', 'food', 'establishment']",37.54118369999999,127.0703528
족발야시장 건대입구점,"22 Achasan-ro 33-gil, Hwayang-dong, Gwangjin-gu","['restaurant', 'point_of_interest', 'food', 'establishment']",37.54118369999999,127.0703528
그때그시절,"Hwayang-dong, Gwangjin-gu","['restaurant', 'point_of_interest', 'food', 'establishment']",37.5411785,127.0703779
명문닭한마리,"Hwayang-dong, Gwangjin-gu","['restaurant', 'food', 'point_of_interest', 'establishment']",37.5412896,127.0704335
불막열삼,"5-50 Hwayang-dong, Gwangjin-gu","['restaurant', 'point_of_interest', 'food', 'establishment']",37.54129500000001,127.0704136
Bajyu,"Hwayang-dong, Gwangjin-gu","['restaurant', 'point_of_interest', 'food', 'establishment']",37.54101179999999,127.0708501
Gogiseog,"5-100 Hwayang-dong, Gwangjin-gu","['restaurant', 'point_of_interest', 'food', 'establishment']",37.5412516,127.0706867
닭들의침묵,"5-50 Hwayang-dong, Gwangjin-gu","['restaurant', 'point_of_interest', 'food', 'establishment']",37.54131729999999,127.0704335
겐로쿠우동,"5-106 Hwayang-dong, Gwangjin-gu","['restaurant', 'point_of_interest', 'food', 'establishment']",37.5410118,127.0708779
더골뱅이,"5-105 Hwayang-dong, Gwangjin-gu","['restaurant', 'point_of_interest', 'food', 'establishment']",37.5411507,127.0708223
부탄츄 건대점,"5-105 Hwayang-dong, Gwangjin-gu","['restaurant', 'point_of_interest', 'food', 'establishment']",37.5411846,127.0708298
숲속의빈터,"5-106 Hwayang-dong, Gwangjin-gu","['restaurant', 'point_of_interest', 'food', 'establishment']",37.5410118,127.0709056
옛날그집,"5-61 Hwayang-dong, Gwangjin-gu","['restaurant', 'point_of_interest', 'food', 'establishment']",37.5413729,127.0704612
Cafe 4B,"5-99 Hwayang-dong, Gwangjin-gu","['restaurant', 'point_of_interest', 'food', 'establishment']",37.5413173,127.0707177
Sasimi,"23 Achasan-ro 33-gil, Gwangjin-gu","['restaurant', 'point_of_interest', 'food', 'establishment']",37.5413467,127.0702184
Tongkeunso,"8-92 Hwayang-dong, Gwangjin-gu","['restaurant', 'point_of_interest', 'food', 'establishment']",37.5413451,127.0702112
Tangmalu,"5-61 Hwayang-dong, Gwangjin-gu","['restaurant', 'point_of_interest', 'food', 'establishment']",37.5414006,127.0704612
돈쫄라건대점,"5-46 Hwayang-dong, Gwangjin-gu","['meal_takeaway', 'restaurant', 'food', 'point_of_interest', 'establishment']",37.5412896,127.0710445
이화 한정식,"5-93 Hwayang-dong, Gwangjin-gu","['restaurant', 'food', 'point_of_interest', 'establishment']",37.5414284,127.0709612
박사아구찜전문,구의동 254-108번지 광진구 서울특별시 KR,"['restaurant', 'point_of_interest', 'food', 'establishment']",37.5413005,127.0834403
도리도리닭도리,"1층, 104번지 Guui-dong, 251, Gwangjin-gu","['restaurant', 'point_of_interest', 'food', 'establishment']",37.5410179,127.0852022
광나루남원추어탕,"248-86번지 Guui-dong, Gwangjin-gu","['restaurant', 'point_of_interest', 'food', 'establishment']",37.54098999999999,127.0854639
문가네본가면옥,구의동 248-86번지 1층 광진구 서울특별시 KR,"['restaurant', 'point_of_interest', 'food', 'establishment']",37.54098999999999,127.0854639
우정옥돌갈매기살,"248-86 Guui-dong, Gwangjin-gu","['restaurant', 'point_of_interest', 'food', 'establishment']",37.54098430000001,127.0854875
뒷고기클라쓰,"1층, 96 Achasan-ro 51-gil, Gwangjin-gu, 서울","['restaurant', 'point_of_interest', 'food', 'establishment']",37.5411351,127.085531
자가제빵선명희피자 구의점,South Korea,"['restaurant', 'point_of_interest', 'food', 'establishment']",37.54122229999999,127.0855573
추억이닭,"1층, 11번지 Guui-dong, 248, Gwangjin-gu","['restaurant', 'food', 'point_of_interest', 'establishment']",37.5413364,127.0856419
Gwipumchan,"192 Achasan-ro, Gwangjin-gu","['restaurant', 'point_of_interest', 'food', 'establishment']",37.5414539,127.0648612
Thai Grill,"17-5 Jayang-dong, Gwangjin-gu","['restaurant', 'point_of_interest', 'food', 'establishment']",37.5414465,127.0649505
본가건대역점,자양동 17-5번지 1층 광진구 서울특별시 KR,"['restaurant', 'point_of_interest', 'food', 'establishment']",37.5415421,127.0649535
Gwiepoomchan,"2층, 재성빌딩, 192 Achasan-ro, Gwangjin-gu","['restaurant', 'point_of_interest', 'food', 'establishment']",37.5415866,127.0649297
(주)태원그릴타이,"3층, 17-9번지 Jayang-dong, Gwangjin-gu","['restaurant', 'point_of_interest', 'food', 'establishment']",37.5414487,127.065108
Bandung Restaurant Common Ground,"17-1 Jayang-dong, Gwangjin-gu","['restaurant', 'food', 'point_of_interest', 'establishment']",37.54143750000001,127.0655
현대기사식당,"49-20 Hwayang-dong, Gwangjin-gu","['restaurant', 'food', 'point_of_interest', 'establishment']",37.5417894,127.0656839
꾸이꾸이,화양동 49-11번지 1층 광진구 서울특별시 KR,"['restaurant', 'food', 'point_of_interest', 'establishment']",37.5417135,127.0660088
함평순대국,"49-11 Hwayang-dong, 번지 1층, Gwangjin-gu","['restaurant', 'food', 'point_of_interest', 'establishment']",37.5417135,127.0660088
옥슨식당,"1층, 49-11번지 Hwayang-dong, Gwangjin-gu","['restaurant', 'food', 'point_of_interest', 'establishment']",37.5417135,127.0660088
건대우동집,"1층, 201 Achasan-ro, Gwangjin-gu","['restaurant', 'food', 'point_of_interest', 'establishment']",37.5417904,127.0660431
의령우마을,"49-12 Hwayang-dong, Gwangjin-gu","['restaurant', 'food', 'point_of_interest', 'establishment']",37.54162280000001,127.0663783
Wonseok Choi's Pork bbq - Kondae (korean bbq restaurant),"199 Achasan-ro, Hwayang-dong, Gwangjin-gu","['restaurant', 'food', 'point_of_interest', 'establishment']",37.54180660000001,127.0656999
뽕사부,"205 Achasan-ro, Gwangjin-gu","['restaurant', 'food', 'point_of_interest', 'establishment']",37.5417161,127.0663313
Royal Indian Restaurant,"42 Dongil-ro 22-gil, Hwayang-dong, Gwangjin-gu","['restaurant', 'food', 'point_of_interest', 'establishment']",37.5418277,127.0664351
인생설렁탕,"48-5 Hwayang-dong, Gwangjin-gu","['restaurant', 'food', 'point_of_interest', 'establishment']",37.5414786,127.0667213
성수계 건대본점,"1 층, 209 Achasan-ro, Gwangjin-gu","['restaurant', 'food', 'point_of_interest', 'establishment']",37.5414435,127.0669661
요가네부대찌게,"48-23 Hwayang-dong, Gwangjin-gu","['restaurant', 'food', 'point_of_interest', 'establishment']",37.5417616,127.0667394
맛닭꼬 건대점,"8 Achasan-ro 25-gil, Gwangjin-gu","['restaurant', 'food', 'point_of_interest', 'establishment']",37.5417748,127.0667476
홍대연가,화양동 49-13번지 광진구 서울특별시 KR,"['restaurant', 'food', 'point_of_interest', 'establishment']",37.5418277,127.0664351
에스(S)노래방,"B1층, 48-21번지 Hwayang-dong, Gwangjin-gu","['restaurant', 'food', 'point_of_interest', 'establishment']",37.5416669,127.0669565
왕관치킨,"48-21 화양동, Gwangjin-gu","['meal_takeaway', 'restaurant', 'food', 'point_of_interest', 'establishment']",37.5416669,127.0669565
Patina,"48-19 Hwayang-dong, Gwangjin-gu","['restaurant', 'food', 'point_of_interest', 'establishment']",37.5415672,127.0671282
육문선생,화양동 48-19번지 1층 광진구 서울특별시 KR,"['restaurant', 'food', 'point_of_interest', 'establishment']",37.54160069999999,127.0671282
Uchetong,"48-19 Hwayang-dong, Gwangjin-gu","['restaurant', 'food', 'point_of_interest', 'establishment']",37.54160069999999,127.0671282
우창식당,"Hwayang-dong, Gwangjin-gu","['restaurant', 'food', 'point_of_interest', 'establishment']",37.54162280000001,127.0670727
조개까고골뱅이까고,"48-20 Hwayang-dong, 번지 1층, Gwangjin-gu","['restaurant', 'food', 'point_of_interest', 'establishment']",37.54163080000001,127.0670532
심야식당 하리,"지하1층, 52 Dongil-ro 22-gil, Gwangjin-gu","['restaurant', 'food', 'point_of_interest', 'establishment']",37.54163080000001,127.0670532
청년감자탕순대국,"46-55 Hwayang-dong, Gwangjin-gu","['restaurant', 'food', 'point_of_interest', 'establishment']",37.5416903,127.0670785
고고90포차,"48-21 Hwayang-dong, Gwangjin-gu","['restaurant', 'food', 'point_of_interest', 'establishment']",37.5417068,127.066996
Deungdae,"Hwayang-dong, Gwangjin-gu","['restaurant', 'food', 'point_of_interest', 'establishment']",37.54178939999999,127.0672115
낙원스낵,"46-48 화양동, Gwangjin-gu","['restaurant', 'food', 'point_of_interest', 'establishment']",37.5417663,127.0673039
아웃닭 건대점,"51 Dongil-ro 22-gil, Gwangjin-gu","['restaurant', 'food', 'point_of_interest', 'establishment']",37.5418192,127.0671878
열혈전복,화양동 46-55번지 지하1층 광진구 서울특별시 KR,"['restaurant', 'food', 'point_of_interest', 'establishment']",37.5418192,127.0671878
인생꼬치479 건대점,"2층, 49 Dongil-ro 22-gil, Gwangjin-gu","['restaurant', 'food', 'point_of_interest', 'establishment']",37.5418534,127.0670944
양철북 건대점,"46-47 Hwayang-dong, Gwangjin-gu","['restaurant', 'point_of_interest', 'food', 'establishment']",37.5417339,127.0674337
딜리샤스,"2층, 딜리샤스, 46-56 Hwayang-dong, Gwangjin-gu","['restaurant', 'point_of_interest', 'food', 'establishment']",37.5418635,127.0670854
총각네조개구이,"48-28번지 Hwayang-dong, Gwangjin-gu","['restaurant', 'food', 'point_of_interest', 'establishment']",37.5414318,127.0676452
소리M,"47-68 Hwayang-dong, Gwangjin-gu","['restaurant', 'food', 'point_of_interest', 'establishment']",37.54162280000001,127.067767
Seusiya,"47-67 Hwayang-dong, Gwangjin-gu","['restaurant', 'food', 'point_of_interest', 'establishment']",37.54165059999999,127.0676559
Halu,"47-67 Hwayang-dong, 번지 2층, Gwangjin-gu","['restaurant', 'food', 'point_of_interest', 'establishment']",37.5416614,127.0676231
새마을식당,"69 Dongil-ro 22-gil, Hwayang-dong, Gwangjin-gu","['restaurant', 'food', 'point_of_interest', 'establishment']",37.5415222,127.068022
화양주막,"1층, 주막, 4 화양동 Achasan-ro 27-gil, Gwangjin-gu","['restaurant', 'food', 'point_of_interest', 'establishment']",37.5417871,127.0676838
이찌방이야기,"1층, 46-47번지 Hwayang-dong, Gwangjin-gu","['restaurant', 'food', 'point_of_interest', 'establishment']",37.5417618,127.0674453
Ganppai,화양동 46-47번지 광진구 서울특별시 KR,"['restaurant', 'food', 'point_of_interest', 'establishment']",37.5417618,127.0674453
Daepocha,화양동 46-47번지 3층 광진구 서울특별시 KR,"['restaurant', 'food', 'point_of_interest', 'establishment']",37.5417618,127.0674453
딸부자네불백 건대역점,"1층, 47-73번지 Hwayang-dong, Gwangjin-gu","['restaurant', 'food', 'point_of_interest', 'establishment']",37.5414686,127.0681947
모로미식당건대점,화양동 47-73번지 1층 광진구 서울특별시 KR,"['restaurant', 'food', 'point_of_interest', 'establishment']",37.5414686,127.0681947
미도참치,"47-81 Hwayang-dong, Gwangjin-gu","['restaurant', 'point_of_interest', 'food', 'establishment']",37.5417979,127.0683626
광어2마리 대호횟집,"71 Dongil-ro 22-gil, Gwangjin-gu","['restaurant', 'point_of_interest', 'food', 'establishment']",37.54152819999999,127.0682171
사거리냉삼,"12 Achasan-ro 29-gil, Gwangjin-gu","['restaurant', 'point_of_interest', 'food', 'establishment']",37.5413939,127.0684333
용범이네 인계동 껍데기 건대입구점,"12 Achasan-ro 29-gil, Hwayang-dong, Gwangjin-gu","['restaurant', 'point_of_interest', 'food', 'establishment']",37.5413939,127.0684333
Pyujeon,화양동 9-90번지 2층 광진구 서울특별시 KR,"['restaurant', 'point_of_interest', 'food', 'establishment']",37.5413939,127.0684333
Teochi,화양동 9-90번지 2층 광진구 서울특별시 KR,"['restaurant', 'point_of_interest', 'food', 'establishment']",37.5413939,127.0684333
서울뚝배기,화양동 9-90번지 1층 광진구 서울특별시 KR,"['restaurant', 'point_of_interest', 'food', 'establishment']",37.5413939,127.0684333
황소곱창 건대본점,"16 Achasan-ro 29-gil, Hwayang-dong, Gwangjin-gu","['restaurant', 'food', 'point_of_interest', 'establishment']",37.5415576,127.0685172
피자브라더스 건대점,"47-71 Hwayang-dong, Gwangjin-gu","['restaurant', 'food', 'point_of_interest', 'establishment']",37.5416975,127.0683231
브롱스 건대점,"2층, 17 Hwayang-dong, Achasan-ro 29-gil, Gwangjin-gu","['liquor_store', 'restaurant', 'food', 'point_of_interest', 'store', 'establishment']",37.5416975,127.0683231
Sala,화양동 47-71번지 1층 광진구 서울특별시 KR,"['restaurant', 'food', 'point_of_interest', 'establishment']",37.5416975,127.0683231
육쌈냉면 건대점,"1층, 19 Achasan-ro 29-gil, Gwangjin-gu","['restaurant', 'food', 'point_of_interest', 'establishment']",37.5417979,127.0683626
음식점업,"19 Achasan-ro 29-gil, Gwangjin-gu","['restaurant', 'food', 'point_of_interest', 'establishment']",37.54182549999999,127.0683748
돕감자탕 전문점,"9 Achasan-ro 31-gil, Gwangjin-gu","['restaurant', 'point_of_interest', 'food', 'establishment']",37.5414696,127.0692892
오뎅끼데스까,화양동 9-25번지 하동 1층 광진구 서울특별시 KR,"['restaurant', 'point_of_interest', 'food', 'establishment']",37.54176199999999,127.068612
천지 샤브샤브 2,"22 Achasan-ro 29-gil, Gwangjin-gu","['restaurant', 'point_of_interest', 'food', 'establishment']",37.54176199999999,127.068612
Bain,"22 Achasan-ro 29-gil, Gwangjin-gu","['bar', 'restaurant', 'food', 'point_of_interest', 'establishment']",37.5417894,127.0685721
서소문연탄구이,"9-19 Hwayang-dong, Gwangjin-gu","['restaurant', 'food', 'point_of_interest', 'establishment']",37.5415117,127.0692947
Kyochon Chicken Konkuk University,"13 Achasan-ro 31-gil, Hwayang-dong, Gwangjin-gu","['meal_takeaway', 'restaurant', 'point_of_interest', 'food', 'establishment']",37.5416671,127.0693804
평화김해뒷고기 건대본점,"9-19 Hwayang-dong, Gwangjin-gu","['restaurant', 'point_of_interest', 'food', 'establishment']",37.54152000000001,127.0693494
돈수작,South Korea,"['restaurant', 'point_of_interest', 'food', 'establishment']",37.54152000000001,127.0693494
Gwangbondalg,화양동 9-19번지 1층 광진구 서울특별시 KR,"['restaurant', 'point_of_interest', 'food', 'establishment']",37.54152000000001,127.0693494
진미훠궈,"9-1 Achasan-ro 31-gil, Gwangjin-gu","['restaurant', 'point_of_interest', 'food', 'establishment']",37.54157519999999,127.0693215
Miwang-Yang,"2층, 49 Achasan-ro 33-gil, Gwangjin-gu","['restaurant', 'point_of_interest', 'food', 'establishment']",37.541588,127.069711
화기애애 본점,"8-37 Hwayang-dong, Gwangjin-gu","['restaurant', 'food', 'point_of_interest', 'establishment']",37.5417061,127.0696557
삼부자철판곱창,South Korea,"['restaurant', 'food', 'point_of_interest', 'establishment']",37.5418431,127.0695231
Nalita,화양동 9-16번지 1호 2층 광진구 서울특별시 KR,"['restaurant', 'food', 'point_of_interest', 'establishment']",37.5418431,127.0695231
후타리본,"20-6 Achasan-ro 31-gil, Gwangjin-gu","['restaurant', 'food', 'point_of_interest', 'establishment']",37.5416657,127.0698874
용용선생 건대점,"25 Achasan-ro 33-gil, Gwangjin-gu","['restaurant', 'food', 'point_of_interest', 'establishment']",37.54142890000001,127.0702513
지구상사,"3층, 27 Achasan-ro 33-gil, Gwangjin-gu","['restaurant', 'food', 'point_of_interest', 'establishment']",37.54153600000001,127.0702398
공간식당,"101호, 8-42 Hwayang-dong, 번지 1층, Gwangjin-gu","['restaurant', 'food', 'point_of_interest', 'establishment']",37.54182850000001,127.0698525
삼면이바다,"5-65 Hwayang-dong, Gwangjin-gu","['restaurant', 'food', 'point_of_interest', 'establishment']",37.54168289999999,127.0705831
조선주막,"28-4 Achasan-ro 33-gil, Gwangjin-gu","['restaurant', 'food', 'point_of_interest', 'establishment']",37.5414184,127.0706384
한식주포차,"1층, 5-59 Hwayang-dong, 번지 지하, Gwangjin-gu","['restaurant', 'food', 'point_of_interest', 'establishment']",37.5414184,127.0706384
Hwayobi,화양동 5-64번지 광진구 서울특별시 KR,"['restaurant', 'food', 'point_of_interest', 'establishment']",37.54158989999999,127.0705537
Owl Cabin Pub - Taste of Korean food,"32 Achasan-ro 33-gil, Gwangjin-gu","['bar', 'liquor_store', 'night_club', 'restaurant', 'food', 'point_of_interest', 'store', 'establishment']",37.5416074,127.0705422
Oji,"5-65 Hwayang-dong, Gwangjin-gu","['restaurant', 'food', 'point_of_interest', 'establishment']",37.5416784,127.0705723
곱따황제비,"1층, 5-65 Hwayang-dong, 번지 지하, Gwangjin-gu","['restaurant', 'food', 'point_of_interest', 'establishment']",37.54168289999999,127.0705831
강경수참치,"34 Achasan-ro 33-gil, Hwayang-dong, Gwangjin-gu","['restaurant', 'food', 'point_of_interest', 'establishment']",37.54168289999999,127.0705831
디트립트,"2층, 117-19 Dongil-ro 22-gil, Gwangjin-gu, 서울시","['restaurant', 'food', 'point_of_interest', 'establishment']",37.5415254,127.0708116
오사카부르스,화양동 8-19번지 2층 광진구 서울특별시 KR,"['restaurant', 'food', 'point_of_interest', 'establishment']",37.5417299,127.0703664
서울낙업,"117-23 Dongil-ro 22-gil, Gwangjin-gu","['restaurant', 'food', 'point_of_interest', 'establishment']",37.54161439999999,127.0708458
뉴웨이브서울,"뉴웨이브 서울, 28-10 Achasan-ro 33-gil, Gwangjin-gu","['restaurant', 'food', 'point_of_interest', 'establishment']",37.5417105,127.0707745
우마이도쿄1,"1층, 5-51번지 Hwayang-dong, Gwangjin-gu","['restaurant', 'food', 'point_of_interest', 'establishment']",37.54179969999999,127.0706473
Oooh Poke 오포케,"117 Neungdong-ro, Gwangjin-gu","['restaurant', 'food', 'point_of_interest', 'establishment']",37.5415592,127.0711244
소박한상,"1층, 번지 하, 5-32 Hwayang-dong, Gwangjin-gu","['restaurant', 'food', 'point_of_interest', 'establishment']",37.5417287,127.0709084
해킹쭈꾸미,화양동 5-42번지 1층 광진구 서울특별시 KR,"['restaurant', 'food', 'point_of_interest', 'establishment']",37.5417734,127.0710946
하나로바다야끼,"5-31 Hwayang-dong, Gwangjin-gu","['restaurant', 'food', 'point_of_interest', 'establishment']",37.5417895,127.0709334
느티나무,"5-30 Hwayang-dong, Gwangjin-gu","['restaurant', 'food', 'point_of_interest', 'establishment']",37.5418173,127.0708223
소소떡볶이자양직영점,"1층, 254-55번지 Guui-dong, Gwangjin-gu","['meal_takeaway', 'restaurant', 'food', 'point_of_interest', 'establishment']",37.5414365,127.0835563
영포분식,"1층, 254-55번지 Guui-dong, Gwangjin-gu","['meal_takeaway', 'restaurant', 'food', 'point_of_interest', 'establishment']",37.5414365,127.0835563
만두국수 전문점,"254-55 Guui-dong, Gwangjin-gu","['restaurant', 'food', 'point_of_interest', 'establishment']",37.5414301,127.0835979
국시(AMD)김밥,"254-55 Guui-dong, Gwangjin-gu","['meal_takeaway', 'restaurant', 'food', 'point_of_interest', 'establishment']",37.54148060000001,127.0835643
굴다리전주콩나물국밥,"251-137 Guui-dong, Gwangjin-gu","['restaurant', 'food', 'point_of_interest', 'establishment']",37.5418418,127.0842235
칠첩밥상,구의동 251-154번지 1층 광진구 서울특별시 KR,"['restaurant', 'food', 'point_of_interest', 'establishment']",37.54166470000001,127.0847428
Yesgol,구의동 251-153번지 1층 광진구 서울특별시 KR,"['restaurant', 'food', 'point_of_interest', 'establishment']",37.54171659999999,127.0845883
Mamiga,구의동 251-139번지 1층 1호 광진구 서울특별시 KR,"['restaurant', 'food', 'point_of_interest', 'establishment']",37.5414976,127.0852824
국이랑찌개랑,구의동 250-5번지 광진구 서울특별시 KR,"['restaurant', 'food', 'point_of_interest', 'establishment']",37.54167699999999,127.0852836
풍년해물칼국수냉면,구의동 250-8번지 1층 광진구 서울특별시 KR,"['restaurant', 'food', 'point_of_interest', 'establishment']",37.5417208,127.0851212
아구세상,"249-21 Guui-dong, Gwangjin-gu","['restaurant', 'food', 'point_of_interest', 'establishment']",37.5415245,127.0857211
두레통닭,"31 Jayang-ro 26-gil, Gwangjin-gu","['restaurant', 'food', 'point_of_interest', 'establishment']",37.5415245,127.0857211
Kaemto,구의동 249-21번지 103호 연이빌딩 광진구 서울특별시 KR,"['restaurant', 'food', 'point_of_interest', 'establishment']",37.5415245,127.0857211
명석이네포차,구의동 249-21번지 1층 광진구 서울특별시 KR,"['restaurant', 'food', 'point_of_interest', 'establishment']",37.5415245,127.0857211
조개손칼국수,구의동 249-21번지 1층 광진구 서울특별시 KR,"['restaurant', 'food', 'point_of_interest', 'establishment']",37.5415245,127.0857211
진미식당,구의동 226-53번지 1층 광진구 서울특별시 KR,"['restaurant', 'food', 'point_of_interest', 'establishment']",37.5414901,127.0857598
마라하오광진점,South Korea,"['restaurant', 'food', 'point_of_interest', 'establishment']",37.5413812,127.0860736
Chung-Il,구의동 249-38번지 1층 광진구 서울특별시 KR,"['restaurant', 'food', 'point_of_interest', 'establishment']",37.5413812,127.0860736
서해쭈꾸미,"49-20 화양동, Gwangjin-gu","['restaurant', 'food', 'point_of_interest', 'establishment']",37.5421227,127.0651284
Pizza Hut,"49-18 화양동, Gwangjin-gu","['restaurant', 'food', 'point_of_interest', 'establishment']",37.54190020000001,127.0654679
엉터리 생고기,"49-8 화양동, Gwangjin-gu","['restaurant', 'food', 'point_of_interest', 'establishment']",37.5421278,127.0655352
생태한마리,"49-8 화양동, Gwangjin-gu","['restaurant', 'food', 'point_of_interest', 'establishment']",37.5421278,127.0655352
Hangane,"1층, 49-6번지 Hwayang-dong, Gwangjin-gu","['restaurant', 'food', 'point_of_interest', 'establishment']",37.5420874,127.0656579
Masjjine,화양동 49-6번지 광진구 서울특별시 KR,"['restaurant', 'food', 'point_of_interest', 'establishment']",37.5420874,127.0656579
Haluga,"49-6 화양동, Gwangjin-gu","['restaurant', 'food', 'point_of_interest', 'establishment']",37.5420672,127.0656839
Masjjine,"26 Dongil-ro 22-gil, Hwayang-dong, Gwangjin-gu","['restaurant', 'food', 'point_of_interest', 'establishment']",37.5421335,127.0656952
Ibsomun,화양동 49-4번지 광진구 서울특별시 KR,"['restaurant', 'point_of_interest', 'food', 'establishment']",37.5419902,127.0660133
Hutali,"32 Dongil-ro 22-gil, Hwayang-dong, Gwangjin-gu","['restaurant', 'point_of_interest', 'food', 'establishment']",37.5419902,127.0660133
좋은생고기,"36 Dongil-ro 22-gil, Gwangjin-gu","['restaurant', 'point_of_interest', 'food', 'establishment']",37.5418882,127.066225
서해쭈꾸미 건대역점,"49-2 Hwayang-dong, Gwangjin-gu","['restaurant', 'point_of_interest', 'food', 'establishment']",37.5418882,127.066225
청춘등판(주),"청춘등판, 1층, Gwangjin-gu","['restaurant', 'point_of_interest', 'food', 'establishment']",37.5419198,127.066226
신참숯불생고기,"화양동, 광진구","['restaurant', 'point_of_interest', 'food', 'establishment']",37.54217829999999,127.0660727
옹아리참벌교꼬막과찜마을,"1층, 45-71번지 Hwayang-dong, Gwangjin-gu","['restaurant', 'point_of_interest', 'food', 'establishment']",37.5421913,127.0660436
사나포차,"45-71번지 Hwayang-dong, Gwangjin-gu","['restaurant', 'point_of_interest', 'food', 'establishment']",37.5421913,127.0660436
Toligwang,화양동 45-72번지 1층 광진구 서울특별시 KR,"['restaurant', 'food', 'point_of_interest', 'establishment']",37.542157,127.0661515
더젊은족발건대점,"31, 동일로22길, 광진구","['restaurant', 'food', 'point_of_interest', 'establishment']",37.54222230000001,127.0660432
만경상회 건대본점,"40 Dongil-ro 22-gil, Hwayang-dong, Gwangjin-gu","['restaurant', 'bar', 'food', 'point_of_interest', 'establishment']",37.54192649999999,127.0663918
미당숯불갈비,"45-81 Hwayang-dong, Gwangjin-gu","['restaurant', 'food', 'point_of_interest', 'establishment']",37.5420116,127.0665449
Tolai,화양동 45-81번지 2층 광진구 서울특별시 KR,"['restaurant', 'food', 'point_of_interest', 'establishment']",37.5420258,127.0665334
가온포차,"1층, 45-81 Hwayang-dong, 번지 지하, Gwangjin-gu","['restaurant', 'food', 'point_of_interest', 'establishment']",37.5420258,127.0665334
누렁소 생고기,"37 Dongil-ro 22-gil, Gwangjin-gu","['restaurant', 'food', 'point_of_interest', 'establishment']",37.5421239,127.0664146
함평한우숯불생고기,"Hwayang-dong, Gwangjin-gu","['restaurant', 'food', 'point_of_interest', 'establishment']",37.5419283,127.0668504
강동식당,"46-64 Hwayang-dong, Gwangjin-gu","['restaurant', 'food', 'point_of_interest', 'establishment']",37.5419283,127.0668504
진격닭발,"14 Achasan-ro 25-gil, Gwangjin-gu","['restaurant', 'food', 'point_of_interest', 'establishment']",37.5419887,127.0668475
본가칼국수,"46-63번지 Hwayang-dong, Gwangjin-gu","['restaurant', 'food', 'point_of_interest', 'establishment']",37.5418857,127.0669289
Oeyang-Gan,"46-65 Hwayang-dong, Gwangjin-gu","['restaurant', 'food', 'point_of_interest', 'establishment']",37.5421443,127.0669331
삼대냉면,"Hwayang-dong, Gwangjin-gu","['restaurant', 'food', 'point_of_interest', 'establishment']",37.5419006,127.0684614
육쌈냉면 건국대점,"1층, 19 Achasan-ro 29-gil, Gwangjin-gu","['restaurant', 'food', 'point_of_interest', 'establishment']",37.5418485,127.0683706
Poman,"1층, 25 Achasan-ro 29-gil, Gwangjin-gu","['restaurant', 'food', 'point_of_interest', 'establishment']",37.5420586,127.0685002
건대닭도리,"9-36 Hwayang-dong, 번지 지층, Gwangjin-gu","['restaurant', 'food', 'point_of_interest', 'establishment']",37.5418732,127.068657
Kohuku,"9-36 Hwayang-dong, Gwangjin-gu","['restaurant', 'food', 'point_of_interest', 'establishment']",37.5418732,127.068657
엉클스떡볶이,화양동 9-36번지 광진구 서울특별시 KR,"['meal_takeaway', 'restaurant', 'food', 'point_of_interest', 'establishment']",37.5418732,127.068657
환이네갈비살 본점,"24 Achasan-ro 29-gil, Gwangjin-gu","['restaurant', 'food', 'point_of_interest', 'establishment']",37.54191349999999,127.0686854
Yang Yang Yanggogi junmoonjom,"9-37 Hwayang-dong, Gwangjin-gu","['restaurant', 'food', 'point_of_interest', 'establishment']",37.54199919999999,127.0686979
양양양꼬치,화양동 9-37번지 9호 화양동 1층 광진구 서울특별시 KR,"['restaurant', 'food', 'point_of_interest', 'establishment']",37.54197000000001,127.0687079
차오벨라,"9-37 Hwayang-dong, Gwangjin-gu","['restaurant', 'food', 'point_of_interest', 'establishment']",37.5419839,127.0687114
요비,"9-45 Hwayang-dong, Gwangjin-gu","['restaurant', 'food', 'point_of_interest', 'establishment']",37.54229309999999,127.0689052
Seumile,"2층, 26 Achasan-ro 29-gil, Gwangjin-gu, 서울","['restaurant', 'food', 'point_of_interest', 'establishment']",37.5420029,127.0687328
24시향기마시지,"Hwayang-dong, Gwangjin-gu","['restaurant', 'food', 'point_of_interest', 'establishment']",37.54203899999999,127.068822
찹찹 CHOP CHOP,"Hwayang-dong, Gwangjin-gu","['meal_takeaway', 'restaurant', 'food', 'point_of_interest', 'establishment']",37.5420394,127.0688225
UriHalmae Topokki Konkuk Univ,"28 Achasan-ro 29-gil, Hwayang-dong, Gwangjin-gu","['restaurant', 'food', 'point_of_interest', 'establishment']",37.5420662,127.0687961
에그드랍 건대입구점,"9-43 Hwayang-dong, Gwangjin-gu","['restaurant', 'food', 'point_of_interest', 'establishment']",37.5420662,127.0687961
lalajubang,"28-3 Achasan-ro 29-gil, #101, Gwangjin-gu","['restaurant', 'food', 'point_of_interest', 'establishment']",37.54203409999999,127.0689481
건대광안리,"29-1 Achasan-ro 29-gil, Hwayang-dong, Gwangjin-gu","['restaurant', 'point_of_interest', 'food', 'establishment']",37.54222149999999,127.0686063
화양실비집,"47-6 Hwayang-dong, 번지 1층, Gwangjin-gu","['restaurant', 'point_of_interest', 'food', 'establishment']",37.54222149999999,127.0686063
프로간장새우,화양동 47-6번지 1층 광진구 서울특별시 KR,"['restaurant', 'point_of_interest', 'food', 'establishment']",37.54222149999999,127.0686063
그루빙하우스,"9-25 Hwayang-dong, 지하1층, Gwangjin-gu","['restaurant', 'point_of_interest', 'food', 'establishment']",37.54225150000001,127.0688637
퍼틴 건대점,"34 Achasan-ro 29-gil, Gwangjin-gu","['restaurant', 'point_of_interest', 'food', 'establishment']",37.54229309999999,127.0689052
김천재 육회반한연어 건대점,"1층, 23 Hwayang-dong, Achasan-ro 31-gil, Gwangjin-gu","['restaurant', 'food', 'point_of_interest', 'establishment']",37.54208699999999,127.0696049
갈비집 본,"23 Achasan-ro 31-gil, Hwayang-dong, Gwangjin-gu","['restaurant', 'food', 'point_of_interest', 'establishment']",37.54208699999999,127.0696049
램스타 (2층),"23 Achasan-ro 31-gil, Hwayang-dong, Gwangjin-gu","['restaurant', 'food', 'point_of_interest', 'establishment']",37.54208699999999,127.0696049
Laemseuta,화양동 9-80번지 201호 광진구 서울특별시 KR,"['restaurant', 'food', 'point_of_interest', 'establishment']",37.54208699999999,127.0696049
곱창카페,"9-80 Hwayang-dong, Gwangjin-gu","['restaurant', 'food', 'point_of_interest', 'establishment']",37.54208699999999,127.0696049
코렌초하우스,"1층, 20 지하 Achasan-ro 31-gil, Gwangjin-gu","['liquor_store', 'night_club', 'bar', 'restaurant', 'food', 'point_of_interest', 'store', 'establishment']",37.5418673,127.0697378
건대통통골뱅이,"1층, 8-43번지 Hwayang-dong, Gwangjin-gu","['restaurant', 'food', 'point_of_interest', 'establishment']",37.5418673,127.0697378
인정포차,"8-43번지 Hwayang-dong, Gwangjin-gu","['restaurant', 'food', 'point_of_interest', 'establishment']",37.5418673,127.0697378
인정국물떡볶이,"2층, 8-43번지 Hwayang-dong, Gwangjin-gu","['meal_takeaway', 'restaurant', 'food', 'point_of_interest', 'establishment']",37.5418673,127.0697378
차이니즈비스트로미미,"1층, 8-43번지 Hwayang-dong, Gwangjin-gu","['restaurant', 'food', 'point_of_interest', 'establishment']",37.5418673,127.0697378
건대아리랑,"9-6 Hwayang-dong, 번지 1층, Gwangjin-gu","['restaurant', 'food', 'point_of_interest', 'establishment']",37.5421973,127.0695887
2호선포차,"8-44 Hwayang-dong, 번지 1층, Gwangjin-gu","['restaurant', 'food', 'point_of_interest', 'establishment']",37.5419921,127.0697984
김창훈호프,South Korea,"['restaurant', 'food', 'point_of_interest', 'establishment']",37.54221509999999,127.0696282
만원수산 건대점,"27 Achasan-ro 31-gil, Gwangjin-gu","['restaurant', 'food', 'point_of_interest', 'establishment']",37.54221509999999,127.0696282
Gobchangjib,화양동 9-76번지 1층 광진구 서울특별시 KR,"['restaurant', 'food', 'point_of_interest', 'establishment']",37.54221509999999,127.0696282
Poboseu,"2층, 28 Achasan-ro 31-gil, Gwangjin-gu","['restaurant', 'food', 'point_of_interest', 'establishment']",37.54211970000001,127.0698738
dongbang saeng gogi pork,"2층, 8-50 Hwayang-dong, Gwangjin-gu","['restaurant', 'food', 'point_of_interest', 'establishment']",37.54211970000001,127.0698738
곱도착합니닭직영건대점,"8-50 Hwayang-dong, 번지 22층, Gwangjin-gu","['restaurant', 'food', 'point_of_interest', 'establishment']",37.54211970000001,127.0698738
建大海螺,"8-50 화양동, Gwangjin-gu","['restaurant', 'food', 'point_of_interest', 'establishment']",37.54211970000001,127.0698738
"포항막회, 물회","28 Achasan-ro 31-gil, Gwangjin-gu","['restaurant', 'food', 'point_of_interest', 'establishment']",37.5421371,127.0698092
부야스곱창,"8-50 Hwayang-dong, Gwangjin-gu","['restaurant', 'food', 'point_of_interest', 'establishment']",37.5421598,127.0698801
설레임 삼겹살 건대점,"8-51 Hwayang-dong, 번지 1층, Gwangjin-gu","['restaurant', 'food', 'point_of_interest', 'establishment']",37.54227429999999,127.0698838
豚窯,"100-5 Dongil-ro 24-gil, 화양동, Gwangjin-gu","['restaurant', 'food', 'point_of_interest', 'establishment']",37.5420608,127.0703776
참숯벽돌집,"8-12 Hwayang-dong, Gwangjin-gu","['restaurant', 'food', 'point_of_interest', 'establishment']",37.54217829999999,127.0702946
888lounge,"9-6 Hwayang-dong, 지하1층, Gwangjin-gu","['restaurant', 'food', 'point_of_interest', 'establishment']",37.5422899,127.0697182
엘루이피자 건대점,"1층, 35 Achasan-ro 33-gil, Gwangjin-gu","['restaurant', 'food', 'point_of_interest', 'establishment']",37.5419001,127.0704729
Jipsin,화양동 8-3번지 1층 광진구 서울특별시 KR,"['restaurant', 'food', 'point_of_interest', 'establishment']",37.5419978,127.0705192
이자카야 시선 건대점,"이자카야 시선, 40-1 Achasan-ro 33-gil, Gwangjin-gu","['restaurant', 'food', 'point_of_interest', 'establishment']",37.5419464,127.0706561
닭발여행X윤이불닭발,"5-29 Hwayang-dong, 번지 지하층 층, Gwangjin-gu","['restaurant', 'food', 'point_of_interest', 'establishment']",37.54189090000001,127.0706812
야키토리 묘미,"2층, 5-29 Hwayang-dong, Gwangjin-gu","['restaurant', 'food', 'point_of_interest', 'establishment']",37.54189090000001,127.0706812
또오새우,"1층, 5-29 Hwayang-dong, 번지 지하, Gwangjin-gu","['restaurant', 'food', 'point_of_interest', 'establishment']",37.54189090000001,127.0706812
Cheong-Wa,화양동 5-29번지 2층 광진구 서울특별시 KR,"['restaurant', 'food', 'point_of_interest', 'establishment']",37.54189090000001,127.0706812
Mapae,"5-28 Hwayang-dong, Gwangjin-gu","['restaurant', 'food', 'point_of_interest', 'establishment']",37.5420117,127.070739
우스 건대역점,"8-8 Hwayang-dong, Gwangjin-gu","['restaurant', 'food', 'point_of_interest', 'establishment']",37.5421506,127.0704612
Sselppa,"8-8 Hwayang-dong, Gwangjin-gu","['restaurant', 'food', 'point_of_interest', 'establishment']",37.5421783,127.0704334
품바치킨,"5-30 Hwayang-dong, Gwangjin-gu","['restaurant', 'food', 'point_of_interest', 'establishment']",37.541845,127.0708223
Donbulag,"Hwayang-dong, Gwangjin-gu","['restaurant', 'point_of_interest', 'food', 'establishment']",37.54217829999999,127.0706278
도키도키 건대,"8-1 Hwayang-dong, Gwangjin-gu","['restaurant', 'point_of_interest', 'food', 'establishment']",37.5421885,127.0706017
kondae bar restaurant sagori,"1층, KR 서울특별시, 43 Achasan-ro 33-gil, Gwangjin-gu, 서울","['restaurant', 'point_of_interest', 'food', 'establishment']",37.5422235,127.0706189
MC맥창,"8-11 Hwayang-dong, Gwangjin-gu","['restaurant', 'point_of_interest', 'food', 'establishment']",37.542273,127.0703472
사계절 건대본점,"1층, 100 Dongil-ro 24-gil, Gwangjin-gu","['restaurant', 'point_of_interest', 'food', 'establishment']",37.5422932,127.0703719
건대 토리고야,"11-9 화양동, Gwangjin-gu","['restaurant', 'point_of_interest', 'food', 'establishment']",37.5422624,127.0707481
건대 술집 이자카야 꼬치구이 맛집 후토,"2층, 8-59 Hwayang-dong, Gwangjin-gu","['restaurant', 'point_of_interest', 'food', 'establishment']",37.5423001,127.0702337
자연담은치킨,"5-7 Hwayang-dong, Gwangjin-gu","['restaurant', 'bar', 'point_of_interest', 'food', 'establishment']",37.5419284,127.0710723
드라빈스,"5-5 Hwayang-dong, Gwangjin-gu","['restaurant', 'point_of_interest', 'food', 'establishment']",37.54195610000001,127.0712389
아비꼬카레,"5-5 Hwayang-dong, 번지 1층, Gwangjin-gu","['restaurant', 'point_of_interest', 'food', 'establishment']",37.5419822,127.0712877
Waffle Shop,South Korea,"['restaurant', 'point_of_interest', 'food', 'establishment']",37.5419822,127.0712877
아비꼬 건대입구역점,"1st, 123 능동로 floor, 광진구","['restaurant', 'point_of_interest', 'food', 'establishment']",37.54203419999999,127.0712689
Seusicheon,"5-3 Hwayang-dong, Gwangjin-gu","['restaurant', 'point_of_interest', 'food', 'establishment']",37.5421228,127.0712945
프릭스버거건대점,"연안빌딩, KR 서울특별시 광진구 화양동 5-17번지 1층 프릭스버거 건대점","['restaurant', 'food', 'point_of_interest', 'establishment']",37.54223329999999,127.071021
날쌘카페 건대점,"1층, 연안빌딩, 8-7 Neungdong-ro 11-gil, Gwangjin-gu","['restaurant', 'food', 'point_of_interest', 'establishment']",37.5422676,127.0710257
공유타코야키,"5-112 Hwayang-dong, Gwangjin-gu","['restaurant', 'food', 'point_of_interest', 'establishment']",37.5421015,127.0714503
항정사이 건대점,"46 Achasan-ro 33-gil, Hwayang-dong, Gwangjin-gu","['restaurant', 'food', 'point_of_interest', 'establishment']",37.5422619,127.0708791
반카니타,"5-1 Hwayang-dong, Gwangjin-gu","['restaurant', 'food', 'point_of_interest', 'establishment']",37.54220610000001,127.0714056
반카니다,"5-1 Hwayang-dong, Gwangjin-gu","['restaurant', 'food', 'point_of_interest', 'establishment']",37.54220610000001,127.0714056
Midalae,"5-1 Hwayang-dong, Gwangjin-gu","['restaurant', 'food', 'point_of_interest', 'establishment']",37.5422339,127.0714333
Cheongking,"1층, 레이크홀, KR 서울특별시 광진구 화양동 1번지 건국대학교 지하","['restaurant', 'food', 'point_of_interest', 'establishment']",37.5419717,127.0767285
브라더양꼬치AND마라탕건대점,"1층 103호, 45번지 Guui-dong, 254, Gwangjin-gu","['restaurant', 'food', 'point_of_interest', 'establishment']",37.54205429999999,127.0830475
Jinhyang,"1층, 254-45번지 Guui-dong, Gwangjin-gu","['restaurant', 'food', 'point_of_interest', 'establishment']",37.54205429999999,127.0830475
Myeongtaegol,KR 서울특별시 광진구 구의동 254-41번지 지층 B101호,"['restaurant', 'food', 'point_of_interest', 'establishment']",37.5419969,127.0836626
둘둘치킨 구의점,"250-21 Guui-dong, Gwangjin-gu","['meal_takeaway', 'restaurant', 'food', 'point_of_interest', 'establishment']",37.5420397,127.0842376
옛날통닭박사,"44번지 Guui-dong, 250, Gwangjin-gu","['restaurant', 'food', 'point_of_interest', 'establishment']",37.5422431,127.0847391
청년고기장수구의점,"102호, 44번지 Guui-dong, 250, Gwangjin-gu","['restaurant', 'food', 'point_of_interest', 'establishment']",37.5422431,127.0847391
Gastoli,KR 서울특별시 광진구 구의동 250-30번지 1층 맨좌측호,"['restaurant', 'food', 'point_of_interest', 'establishment']",37.5422234,127.0848672
코스모스,"18-1 Jayang-ro 28-gil, Gwangjin-gu","['meal_takeaway', 'restaurant', 'food', 'point_of_interest', 'establishment']",37.5421008,127.0852919
만년돈까스,"2호, 250-26 Guui-dong, 번지 1층, Gwangjin-gu","['restaurant', 'food', 'point_of_interest', 'establishment']",37.5421362,127.0851297
마마분식,"3호, 250-26 Guui-dong, 번지 1층, Gwangjin-gu","['restaurant', 'food', 'point_of_interest', 'establishment']",37.5421362,127.0851297
Daol,"250-26 Guui-dong, Gwangjin-gu","['restaurant', 'food', 'point_of_interest', 'establishment']",37.5421362,127.0851297
한끼식사,구의동 250-26번지 1층 광진구 서울특별시 KR,"['restaurant', 'food', 'point_of_interest', 'establishment']",37.5421362,127.0851297
구이(92)닭강정,South Korea,"['restaurant', 'food', 'point_of_interest', 'establishment']",37.5421362,127.0851297
크레파스 분식즉석떡볶이,"250-36 구의제1동, Gwangjin-gu","['restaurant', 'food', 'point_of_interest', 'establishment']",37.5420981,127.0854174
하이틴분식,구의동 250-35번지 1층 광진구 서울특별시 KR,"['meal_takeaway', 'restaurant', 'food', 'point_of_interest', 'establishment']",37.5420471,127.0854952
모두랑분식,"24 Jayang-ro 28-gil, Guui-dong, Gwangjin-gu","['restaurant', 'food', 'point_of_interest', 'establishment']",37.5420933,127.0854996
Ichilo,"18 Jayang-ro 28-gil, Gwangjin-gu","['restaurant', 'food', 'point_of_interest', 'establishment']",37.54220460000001,127.0851641
Tteogsun-I,구의동 237-34번지 103호 1층 광진구 서울특별시 KR,"['restaurant', 'food', 'point_of_interest', 'establishment']",37.5421906,127.0855274
훼미리토스트,구의동 237-34번지 1층 광진구 서울특별시 KR,"['restaurant', 'food', 'point_of_interest', 'establishment']",37.5421906,127.0855274
즉석 명하라면,"249-17 구의제1동, Gwangjin-gu","['restaurant', 'food', 'point_of_interest', 'establishment']",37.5419652,127.0858338
만웅갈비광장,"50-2 화양동, Gwangjin-gu","['restaurant', 'point_of_interest', 'food', 'establishment']",37.5424837,127.0645173
한갑루짬뽕,"50-2 Hwayang-dong, 번지 2층, Gwangjin-gu","['restaurant', 'point_of_interest', 'food', 'establishment']",37.54252320000001,127.0644892
Jong-Gajib,"42-22 화양동, Gwangjin-gu","['restaurant', 'point_of_interest', 'food', 'establishment']",37.5425948,127.0649617
전주밥상,"42-22 Hwayang-dong, Gwangjin-gu","['restaurant', 'point_of_interest', 'food', 'establishment']",37.5425428,127.0650249
고기굽는공간,"42-22 화양동, Gwangjin-gu","['restaurant', 'point_of_interest', 'food', 'establishment']",37.5425393,127.0650451
동촌우렁쌈밥,"42-22 Hwayang-dong, Gwangjin-gu","['restaurant', 'point_of_interest', 'food', 'establishment']",37.5425545,127.0650263
도깨비밥상,"42-22번지 Hwayang-dong, Gwangjin-gu","['restaurant', 'point_of_interest', 'food', 'establishment']",37.5425545,127.0650263
남원추어탕,South Korea,"['restaurant', 'point_of_interest', 'food', 'establishment']",37.54265039999999,127.0647117
Yedambapsang,"13 Dongil-ro 22-gil, Gwangjin-gu","['restaurant', 'point_of_interest', 'food', 'establishment']",37.5424977,127.0651772
무궁화생등심,"44-68 화양동, Gwangjin-gu","['restaurant', 'point_of_interest', 'food', 'establishment']",37.542456,127.0652117
귀한족발,South Korea,"['restaurant', 'point_of_interest', 'food', 'establishment']",37.5426714,127.0646503
건대소두마리,화양동 44-61번지 지상 1층 광진구 서울특별시 KR,"['restaurant', 'point_of_interest', 'food', 'establishment']",37.542438,127.065331
소몰이 건대점,"44-61 Hwayang-dong, Gwangjin-gu","['restaurant', 'point_of_interest', 'food', 'establishment']",37.542438,127.065331
모가생삼겹살,"화양동, 광진구","['restaurant', 'food', 'point_of_interest', 'establishment']",37.5424282,127.0653506
와포2호점,"44-59 Hwayang-dong, Gwangjin-gu","['restaurant', 'food', 'point_of_interest', 'establishment']",37.5423414,127.065612
Sunjane,화양동 44-18번지 광진구 서울특별시 KR,"['restaurant', 'food', 'point_of_interest', 'establishment']",37.5424482,127.0659374
Deopudeu,"46-9 Hwayang-dong, 번지 1층, Gwangjin-gu","['restaurant', 'food', 'point_of_interest', 'establishment']",37.54236410000001,127.067044
손큰할매순대국건대역점,"1층, 47-55번지 Hwayang-dong, Gwangjin-gu","['restaurant', 'point_of_interest', 'food', 'establishment']",37.5424287,127.0687191
철대문집삼겹살,"1층, 47-55번지 Hwayang-dong, Gwangjin-gu","['restaurant', 'point_of_interest', 'food', 'establishment']",37.5424287,127.0687191
핀치페니 건대점,"47-1 Hwayang-dong, Gwangjin-gu","['restaurant', 'food', 'point_of_interest', 'establishment']",37.542706,127.068878
Baebujang stew,"9-48 Hwayang-dong, Gwangjin-gu","['restaurant', 'food', 'point_of_interest', 'establishment']",37.54256199999999,127.069009
무한양꼬치,"2층, 47-1번지 Hwayang-dong, Gwangjin-gu","['restaurant', 'food', 'point_of_interest', 'establishment']",37.5426859,127.0688766
화성기무한리필샤브샤브,"9-50 Hwayang-dong, Gwangjin-gu","['restaurant', 'food', 'point_of_interest', 'establishment']",37.5426399,127.0690835
별난 만두 건대점,"44 Achasan-ro 29-gil, Hwayang-dong, Gwangjin-gu","['restaurant', 'food', 'point_of_interest', 'establishment']",37.5426955,127.0689873
차이차이,화양동 9-50번지 2층 광진구 서울특별시 KR,"['restaurant', 'food', 'point_of_interest', 'establishment']",37.5426543,127.0691033
중화요리,"Hwayang-dong, Gwangjin-gu","['restaurant', 'food', 'point_of_interest', 'establishment']",37.5426505,127.069128
소금창고,"9-4 Hwayang-dong, Gwangjin-gu","['restaurant', 'food', 'point_of_interest', 'establishment']",37.5424838,127.0695724
샹궈리라,"2층, 9-66번지 Hwayang-dong, Gwangjin-gu","['restaurant', 'food', 'point_of_interest', 'establishment']",37.5425688,127.0694597
공주껍데기,"9-66번지 Hwayang-dong, Gwangjin-gu","['restaurant', 'food', 'point_of_interest', 'establishment']",37.5425688,127.0694597
신대동집,"1층, 9-66번지 Hwayang-dong, Gwangjin-gu","['restaurant', 'food', 'point_of_interest', 'establishment']",37.5425688,127.0694597
대구안지랑곱창막창,South Korea,"['restaurant', 'food', 'point_of_interest', 'establishment']",37.5425688,127.0694597
Destiny Beer,"9-66 Hwayang-dong, 지하1층, Gwangjin-gu","['restaurant', 'food', 'point_of_interest', 'establishment']",37.5426084,127.0694355
시오간촨촨썅샤브샤브,"9-51 Hwayang-dong, 번지 2층, Gwangjin-gu","['restaurant', 'food', 'point_of_interest', 'establishment']",37.5426484,127.0692664
Taewon,"9-51 Hwayang-dong, Gwangjin-gu","['restaurant', 'food', 'point_of_interest', 'establishment']",37.5426484,127.0692664
삼꾸미집건대점,"9-6 Hwayang-dong, 번지 2층, Gwangjin-gu","['restaurant', 'food', 'point_of_interest', 'establishment']",37.5423403,127.0697398
갑돌이포차,"9-6 Hwayang-dong, 번지 2층, Gwangjin-gu","['restaurant', 'food', 'point_of_interest', 'establishment']",37.5423403,127.0697398
막창도둑,"9-6번지 Hwayang-dong, Gwangjin-gu","['restaurant', 'food', 'point_of_interest', 'establishment']",37.5423403,127.0697398
케미테이블,화양동 9-6번지 광진구 서울특별시 KR,"['restaurant', 'food', 'point_of_interest', 'establishment']",37.5423403,127.0697398
수제벗갈비,화양동 9-6번지 광진구 서울특별시 KR,"['restaurant', 'point_of_interest', 'food', 'establishment']",37.5423403,127.0697398
프랭크버거 서울 건대1호점,"44 Achasan-ro 29-gil, Gwangjin-gu","['restaurant', 'point_of_interest', 'food', 'establishment']",37.5426884,127.069118
마포이모네,"9-1 Hwayang-dong, Gwangjin-gu","['restaurant', 'point_of_interest', 'food', 'establishment']",37.5424005,127.0698224
홍대칼국수와족발,"10-36 Hwayang-dong, Gwangjin-gu","['restaurant', 'point_of_interest', 'food', 'establishment']",37.5427457,127.0693712
Jeong-Gane,화양동 9-1번지 1층 광진구 서울특별시 KR,"['restaurant', 'point_of_interest', 'food', 'establishment']",37.5424401,127.0698234
족발먹은보쌈,"102호, 85 Dongil-ro 24-gil, Gwangjin-gu","['restaurant', 'point_of_interest', 'food', 'establishment']",37.5426686,127.0696656
막삼이네,"10-14 Hwayang-dong, Gwangjin-gu","['restaurant', 'point_of_interest', 'food', 'establishment']",37.5426686,127.0696656
현장술집,"8-58번지 Hwayang-dong, Gwangjin-gu","['restaurant', 'point_of_interest', 'food', 'establishment']",37.5423344,127.0701303
The 청춘 ร้านชึกซอกต็อกบกกี,"11-16 Hwayang-dong, Gwangjin-gu","['restaurant', 'point_of_interest', 'food', 'establishment']",37.5425157,127.0700692
미친쭈꾸미,"11-16 Hwayang-dong, 번지 1층, Gwangjin-gu","['restaurant', 'food', 'point_of_interest', 'establishment']",37.5425458,127.0700846
다원투뿔육회,"1층, 93 Dongil-ro 24-gil, Gwangjin-gu","['restaurant', 'food', 'point_of_interest', 'establishment']",37.5425458,127.0700846
왕코등갈비,"11-16 Hwayang-dong, 번지 1층, Gwangjin-gu","['restaurant', 'food', 'point_of_interest', 'establishment']",37.5425458,127.0700846
순곱이네,"93 Dongil-ro 24-gil, 화양동, Gwangjin-gu","['restaurant', 'food', 'point_of_interest', 'establishment']",37.5425458,127.0700846
이자카야 잔월,"Dongil-ro 24-gil, Hwayang-dong, Gwangjin-gu","['restaurant', 'food', 'point_of_interest', 'establishment']",37.5425458,127.0700846
꾸어꾸어,"Hwayang-dong, Gwangjin-gu","['restaurant', 'food', 'point_of_interest', 'establishment']",37.5425949,127.0699335
위대한계츠비,"37 Achasan-ro 31-gil, Gwangjin-gu","['restaurant', 'food', 'point_of_interest', 'establishment']",37.5425994,127.0699142
건대 깡우동,"8-59 Hwayang-dong, Gwangjin-gu","['restaurant', 'food', 'point_of_interest', 'establishment']",37.5423414,127.0702429
정통집 건대점,"1층, 95 Hwayang-dong, Dongil-ro 24-gil, Gwangjin-gu","['restaurant', 'food', 'point_of_interest', 'establishment']",37.5424962,127.0701882
40년전통 대부탕,"10-9 Hwayang-dong, Gwangjin-gu","['restaurant', 'food', 'point_of_interest', 'establishment']",37.542614,127.069855
신김치삼겹살,"11-14 Hwayang-dong, Gwangjin-gu","['restaurant', 'food', 'point_of_interest', 'establishment']",37.5424838,127.0702112
Hyeongje,"10-8 Hwayang-dong, Gwangjin-gu","['restaurant', 'food', 'point_of_interest', 'establishment']",37.542706,127.069989
황먼지미판,"11-18 Hwayang-dong, Gwangjin-gu","['restaurant', 'food', 'point_of_interest', 'establishment']",37.5426256,127.070267
Bottoms up,"11-18 화양동, Gwangjin-gu","['restaurant', 'food', 'point_of_interest', 'establishment']",37.5426256,127.070267
조그삼 건대점,"10-14 Hwayang-dong, Gwangjin-gu","['restaurant', 'food', 'point_of_interest', 'establishment']",37.5427245,127.0696898
셰프들의 심야식당,"99 Dongil-ro 24-gil, Hwayang-dong, Gwangjin-gu","['restaurant', 'food', 'point_of_interest', 'establishment']",37.5424179,127.0704336
꼬꼬아찌숯불치킨,화양동 11-11번지 1층 광진구 서울특별시 KR,"['restaurant', 'food', 'point_of_interest', 'establishment']",37.5424179,127.0704336
장비갈매기 건대점,"11-11 Hwayang-dong, Gwangjin-gu","['restaurant', 'food', 'point_of_interest', 'establishment']",37.5424283,127.0704334
Sotssam,"Hwayang-dong, Gwangjin-gu","['restaurant', 'point_of_interest', 'food', 'establishment']",37.5423728,127.0705723
버켓그릴(건대점),"11-9 Hwayang-dong, Gwangjin-gu","['restaurant', 'point_of_interest', 'food', 'establishment']",37.5423389,127.0706983
Sot-Aenssam,"11-10 Hwayang-dong, Gwangjin-gu","['restaurant', 'point_of_interest', 'food', 'establishment']",37.5423765,127.0705496
권쉐프의이탈리안포차,"1층, 11-9 Hwayang-dong, 번지 지하, Gwangjin-gu","['restaurant', 'point_of_interest', 'food', 'establishment']",37.5423389,127.0706983
히어로키친광진점,"2층, 11-7 Hwayang-dong, 번지 1호, Gwangjin-gu","['restaurant', 'point_of_interest', 'food', 'establishment']",37.5424706,127.070717
막나가는집,"1층, 11-7번지 Hwayang-dong, Gwangjin-gu","['restaurant', 'point_of_interest', 'food', 'establishment']",37.5424706,127.070717
양꼬치미왕,화양동 11-7번지 2층 광진구 서울특별시 KR,"['restaurant', 'point_of_interest', 'food', 'establishment']",37.5424706,127.070717
노마세야매운갈비찜건대입구점,화양동 11-7번지 하동 1층 광진구 서울특별시 KR,"['restaurant', 'point_of_interest', 'food', 'establishment']",37.5424706,127.070717
김병만의달인갈매기 건대점,"5-24 Hwayang-dong, Gwangjin-gu","['restaurant', 'point_of_interest', 'food', 'establishment']",37.542345,127.0709056
숯불부자곱창,"48 Achasan-ro 33-gil, Hwayang-dong, Gwangjin-gu","['restaurant', 'point_of_interest', 'food', 'establishment']",37.5423628,127.0709102
Geondaljib,화양동 5-24번지 1층 광진구 서울특별시 KR,"['restaurant', 'point_of_interest', 'food', 'establishment']",37.54234599999999,127.0709188
소문난왕곱창,"KR 서울특별시 KR, 5-24 번지, Gwangjin-gu, 화양동","['restaurant', 'point_of_interest', 'food', 'establishment']",37.54234599999999,127.0709188
매드쉐프,"11-39 Hwayang-dong, Gwangjin-gu","['restaurant', 'point_of_interest', 'food', 'establishment']",37.5426764,127.0706488
아라정원 건대점,"1층, 51-4 Achasan-ro 33-gil, Gwangjin-gu","['restaurant', 'point_of_interest', 'food', 'establishment']",37.5426764,127.0706488
Kkomagtae,"51-4 Achasan-ro 33-gil, 화양동, Gwangjin-gu","['restaurant', 'point_of_interest', 'food', 'establishment']",37.5426764,127.0706488
MiDoin,"53 Achasan-ro 33-gil, Gwangjin-gu","['restaurant', 'point_of_interest', 'food', 'establishment']",37.5426213,127.0708081
철뚝길,South Korea,"['restaurant', 'point_of_interest', 'food', 'establishment']",37.5424319,127.0709574
왓츠삼겹,"11-7번지 1층 왓츠삼겹, Gwangjin-gu","['restaurant', 'point_of_interest', 'food', 'establishment']",37.542638,127.070795
더프타운 라운지 3호점(DUFFTOWN _3),"5-22 Hwayang-dong, Gwangjin-gu","['bar', 'restaurant', 'point_of_interest', 'food', 'establishment']",37.54251600000001,127.0709982
시그니처 브런치카페 건대점,"52 Achasan-ro 33-gil, Gwangjin-gu","['restaurant', 'point_of_interest', 'food', 'establishment']",37.54251600000001,127.0709982
Sib-Wonjib,화양동 5-22번지 광진구 서울특별시 KR,"['restaurant', 'point_of_interest', 'food', 'establishment']",37.54251600000001,127.0709982
옥슨식당(황토숯불갈비),"5-22 Hwayang-dong, Gwangjin-gu","['restaurant', 'point_of_interest', 'food', 'establishment']",37.54251600000001,127.0709982
미스사이공 건대점,"8-13 Neungdong-ro 11-gil, Gwangjin-gu","['restaurant', 'point_of_interest', 'food', 'establishment']",37.5425098,127.0711436
돈가츠 펍타임,"지하1층, 9 Hwayang-dong, Neungdong-ro 13-gil, Gwangjin-gu","['restaurant', 'point_of_interest', 'food', 'establishment']",37.5425114,127.071208
파스타타임,화양동 5-20번지 지하 광진구 서울특별시 KR,"['restaurant', 'point_of_interest', 'food', 'establishment']",37.5425435,127.071162
홍마떡건대점,"1층, 3-43번지 Hwayang-dong, Gwangjin-gu","['restaurant', 'point_of_interest', 'food', 'establishment']",37.5423972,127.0713453
만나손칼국수,"KR 서울특별시, 5-21 Hwayang-dong, Gwangjin-gu, B1","['restaurant', 'point_of_interest', 'food', 'establishment']",37.542611,127.0710588
제이피케이키친,"B01호, 5-21 Hwayang-dong, 번지 1층, Gwangjin-gu","['restaurant', 'point_of_interest', 'food', 'establishment']",37.5426136,127.0710343
정가네곱떡,"3층, 5-21 Hwayang-dong, 번지 2호, Gwangjin-gu","['restaurant', 'point_of_interest', 'food', 'establishment']",37.5426136,127.0710343
유미카츠 건대점,"5-21 Hwayang-dong, Gwangjin-gu","['restaurant', 'point_of_interest', 'food', 'establishment']",37.5426136,127.0710343
Jjudaegam,화양동 5-21번지 1층 광진구 서울특별시 KR,"['restaurant', 'point_of_interest', 'food', 'establishment']",37.5426136,127.0710343
고씨네 건국대점,"2층, 3-42 Hwayang-dong, Gwangjin-gu","['restaurant', 'point_of_interest', 'food', 'establishment']",37.5424872,127.0714523
할머니가래떡볶이,"3-43 Hwayang-dong, 번지 1층, Gwangjin-gu","['restaurant', 'food', 'point_of_interest', 'establishment']",37.5425901,127.0713651
제주곤이칼국수 건대점,"12 Neungdong-ro 13-gil, Gwangjin-gu","['restaurant', 'food', 'point_of_interest', 'establishment']",37.5427015,127.0712075
시민분식센터건대점,"3-70 Hwayang-dong, 번지 1층, Gwangjin-gu","['meal_takeaway', 'restaurant', 'food', 'point_of_interest', 'establishment']",37.5427015,127.0712075
장미찜닭 건대점,"12 Neungdong-ro 13-gil, Hwayang-dong, Gwangjin-gu","['restaurant', 'food', 'point_of_interest', 'establishment']",37.5427015,127.0712075
미쵸곱창,화양동 3-70번지 1층 광진구 서울특별시 KR,"['restaurant', 'food', 'point_of_interest', 'establishment']",37.5427015,127.0712075
데스티노,"6 Neungdong-ro 13-gil, Gwangjin-gu","['restaurant', 'food', 'point_of_interest', 'establishment']",37.54254960000001,127.0714607
